header: 
  seq: 278688
  stamp: 
    secs: 1479424214
    nsecs: 787219361
  frame_id: ''
steering_wheel_angle: 0.00349065847695
steering_wheel_angle_cmd: 0.0
steering_wheel_torque: 0.125
speed: 22.8805561066
enabled: False
override: False
driver: False
fault_wdc: False
fault_bus1: False
fault_bus2: False
fault_calibration: False
fault_connector: True
---
header: 
  seq: 278689
  stamp: 
    secs: 1479424214
    nsecs: 807231859
  frame_id: ''
steering_wheel_angle: 0.00349065847695
steering_wheel_angle_cmd: 0.0
steering_wheel_torque: 0.125
speed: 22.8861103058
enabled: False
override: False
driver: False
fault_wdc: False
fault_bus1: False
fault_bus2: False
fault_calibration: False
fault_connector: True
---
header: 
  seq: 278690
  stamp: 
    secs: 1479424214
    nsecs: 827300730
  frame_id: ''
steering_wheel_angle: 0.00349065847695
steering_wheel_angle_cmd: 0.0
steering_wheel_torque: 0.125
speed: 22.8916664124
enabled: False
override: False
driver: False
fault_wdc: False
fault_bus1: False
fault_bus2: False
fault_calibration: False
fault_connector: True
---
header: 
  seq: 278691
  stamp: 
    secs: 1479424214
    nsecs: 847355643
  frame_id: ''
steering_wheel_angle: 0.00349065847695
steering_wheel_angle_cmd: 0.0
steering_wheel_torque: 0.1875
speed: 22.8972225189
enabled: False
override: False
driver: False
fault_wdc: False
fault_bus1: False
fault_bus2: False
fault_calibration: False
fault_connector: True
---
header: 
  seq: 278692
  stamp: 
    secs: 1479424214
    nsecs: 867355824
  frame_id: ''
steering_wheel_angle: 0.00349065847695
steering_wheel_angle_cmd: 0.0
steering_wheel_torque: 0.0
speed: 22.9027786255
enabled: False
override: False
driver: False
fault_wdc: False
fault_bus1: False
fault_bus2: False
fault_calibration: False
fault_connector: True
---
header: 
  seq: 278693
  stamp: 
    secs: 1479424214
    nsecs: 887364135
  frame_id: ''
steering_wheel_angle: 0.00349065847695
steering_wheel_angle_cmd: 0.0
steering_wheel_torque: 0.0625
speed: 22.9055557251
enabled: False
override: False
driver: False
fault_wdc: False
fault_bus1: False
fault_bus2: False
fault_calibration: False
fault_connector: True
---
header: 
  seq: 278694
  stamp: 
    secs: 1479424214
    nsecs: 907399816
  frame_id: ''
steering_wheel_angle: 0.00349065847695
steering_wheel_angle_cmd: 0.0
steering_wheel_torque: 0.25
speed: 22.9083328247
enabled: False
override: False
driver: False
fault_wdc: False
fault_bus1: False
fault_bus2: False
fault_calibration: False
fault_connector: True
---
header: 
  seq: 278695
  stamp: 
    secs: 1479424214
    nsecs: 927455132
  frame_id: ''
steering_wheel_angle: 0.00349065847695
steering_wheel_angle_cmd: 0.0
steering_wheel_torque: -0.0625
speed: 22.9111118317
enabled: False
override: False
driver: False
fault_wdc: False
fault_bus1: False
fault_bus2: False
fault_calibration: False
fault_connector: True
---
header: 
  seq: 278696
  stamp: 
    secs: 1479424214
    nsecs: 947476806
  frame_id: ''
steering_wheel_angle: 0.00174532923847
steering_wheel_angle_cmd: 0.0
steering_wheel_torque: 0.0
speed: 22.9138889313
enabled: False
override: False
driver: False
fault_wdc: False
fault_bus1: False
fault_bus2: False
fault_calibration: False
fault_connector: True
---
header: 
  seq: 278697
  stamp: 
    secs: 1479424214
    nsecs: 967638631
  frame_id: ''
steering_wheel_angle: 0.00174532923847
steering_wheel_angle_cmd: 0.0
steering_wheel_torque: -0.0625
speed: 22.9138889313
enabled: False
override: False
driver: False
fault_wdc: False
fault_bus1: False
fault_bus2: False
fault_calibration: False
fault_connector: True
---
header: 
  seq: 278698
  stamp: 
    secs: 1479424214
    nsecs: 987608507
  frame_id: ''
steering_wheel_angle: 0.00174532923847
steering_wheel_angle_cmd: 0.0
steering_wheel_torque: 0.25
speed: 22.9222221375
enabled: False
override: False
driver: False
fault_wdc: False
fault_bus1: False
fault_bus2: False
fault_calibration: False
fault_connector: True
---
header: 
  seq: 278699
  stamp: 
    secs: 1479424215
    nsecs: 007651861
  frame_id: ''
steering_wheel_angle: 0.00174532923847
steering_wheel_angle_cmd: 0.0
steering_wheel_torque: -0.0625
speed: 22.9166660309
enabled: False
override: False
driver: False
fault_wdc: False
fault_bus1: False
fault_bus2: False
fault_calibration: False
fault_connector: True
---
header: 
  seq: 278700
  stamp: 
    secs: 1479424215
    nsecs: 027637427
  frame_id: ''
steering_wheel_angle: 0.00174532923847
steering_wheel_angle_cmd: 0.0
steering_wheel_torque: 0.125
speed: 22.9111118317
enabled: False
override: False
driver: False
fault_wdc: False
fault_bus1: False
fault_bus2: False
fault_calibration: False
fault_connector: True
---
header: 
  seq: 278701
  stamp: 
    secs: 1479424215
    nsecs: 047670967
  frame_id: ''
steering_wheel_angle: 0.00174532923847
steering_wheel_angle_cmd: 0.0
steering_wheel_torque: -0.1875
speed: 22.9138889313
enabled: False
override: False
driver: False
fault_wdc: False
fault_bus1: False
fault_bus2: False
fault_calibration: False
fault_connector: True
---
header: 
  seq: 278702
  stamp: 
    secs: 1479424215
    nsecs: 067703294
  frame_id: ''
steering_wheel_angle: 0.0
steering_wheel_angle_cmd: 0.0
steering_wheel_torque: -0.125
speed: 22.9138889313
enabled: False
override: False
driver: False
fault_wdc: False
fault_bus1: False
fault_bus2: False
fault_calibration: False
fault_connector: True
---
header: 
  seq: 278703
  stamp: 
    secs: 1479424215
    nsecs: 087827569
  frame_id: ''
steering_wheel_angle: -0.00349065847695
steering_wheel_angle_cmd: 0.0
steering_wheel_torque: -0.25
speed: 22.9111118317
enabled: False
override: False
driver: False
fault_wdc: False
fault_bus1: False
fault_bus2: False
fault_calibration: False
fault_connector: True
---
header: 
  seq: 278704
  stamp: 
    secs: 1479424215
    nsecs: 107787727
  frame_id: ''
steering_wheel_angle: -0.00523598771542
steering_wheel_angle_cmd: 0.0
steering_wheel_torque: -0.25
speed: 22.9083328247
enabled: False
override: False
driver: False
fault_wdc: False
fault_bus1: False
fault_bus2: False
fault_calibration: False
fault_connector: True
---
header: 
  seq: 278705
  stamp: 
    secs: 1479424215
    nsecs: 127809267
  frame_id: ''
steering_wheel_angle: -0.0069813169539
steering_wheel_angle_cmd: 0.0
steering_wheel_torque: -0.1875
speed: 22.9111118317
enabled: False
override: False
driver: False
fault_wdc: False
fault_bus1: False
fault_bus2: False
fault_calibration: False
fault_connector: True
---
header: 
  seq: 278706
  stamp: 
    secs: 1479424215
    nsecs: 147880305
  frame_id: ''
steering_wheel_angle: -0.0104719754308
steering_wheel_angle_cmd: 0.0
steering_wheel_torque: -0.25
speed: 22.9111118317
enabled: False
override: False
driver: False
fault_wdc: False
fault_bus1: False
fault_bus2: False
fault_calibration: False
fault_connector: True
---
header: 
  seq: 278707
  stamp: 
    secs: 1479424215
    nsecs: 167852446
  frame_id: ''
steering_wheel_angle: -0.0104719754308
steering_wheel_angle_cmd: 0.0
steering_wheel_torque: -0.1875
speed: 22.9194450378
enabled: False
override: False
driver: False
fault_wdc: False
fault_bus1: False
fault_bus2: False
fault_calibration: False
fault_connector: True
---
header: 
  seq: 278708
  stamp: 
    secs: 1479424215
    nsecs: 187945498
  frame_id: ''
steering_wheel_angle: -0.0104719754308
steering_wheel_angle_cmd: 0.0
steering_wheel_torque: -0.25
speed: 22.9249992371
enabled: False
override: False
driver: False
fault_wdc: False
fault_bus1: False
fault_bus2: False
fault_calibration: False
fault_connector: True
---
header: 
  seq: 278709
  stamp: 
    secs: 1479424215
    nsecs: 207962551
  frame_id: ''
steering_wheel_angle: -0.0122173046693
steering_wheel_angle_cmd: 0.0
steering_wheel_torque: -0.125
speed: 22.9388885498
enabled: False
override: False
driver: False
fault_wdc: False
fault_bus1: False
fault_bus2: False
fault_calibration: False
fault_connector: True
---
header: 
  seq: 278710
  stamp: 
    secs: 1479424215
    nsecs: 227994688
  frame_id: ''
steering_wheel_angle: -0.0122173046693
steering_wheel_angle_cmd: 0.0
steering_wheel_torque: -0.1875
speed: 22.947221756
enabled: False
override: False
driver: False
fault_wdc: False
fault_bus1: False
fault_bus2: False
fault_calibration: False
fault_connector: True
---
header: 
  seq: 278711
  stamp: 
    secs: 1479424215
    nsecs: 248047727
  frame_id: ''
steering_wheel_angle: -0.0122173046693
steering_wheel_angle_cmd: 0.0
steering_wheel_torque: -0.1875
speed: 22.947221756
enabled: False
override: False
driver: False
fault_wdc: False
fault_bus1: False
fault_bus2: False
fault_calibration: False
fault_connector: True
---
header: 
  seq: 278712
  stamp: 
    secs: 1479424215
    nsecs: 268047655
  frame_id: ''
steering_wheel_angle: -0.0139626339078
steering_wheel_angle_cmd: 0.0
steering_wheel_torque: -0.1875
speed: 22.9583339691
enabled: False
override: False
driver: False
fault_wdc: False
fault_bus1: False
fault_bus2: False
fault_calibration: False
fault_connector: True
---
header: 
  seq: 278713
  stamp: 
    secs: 1479424215
    nsecs: 288069542
  frame_id: ''
steering_wheel_angle: -0.0139626339078
steering_wheel_angle_cmd: 0.0
steering_wheel_torque: -0.375
speed: 22.9722213745
enabled: False
override: False
driver: False
fault_wdc: False
fault_bus1: False
fault_bus2: False
fault_calibration: False
fault_connector: True
---
header: 
  seq: 278714
  stamp: 
    secs: 1479424215
    nsecs: 308153483
  frame_id: ''
steering_wheel_angle: -0.0157079640776
steering_wheel_angle_cmd: 0.0
steering_wheel_torque: -0.25
speed: 22.9833335876
enabled: False
override: False
driver: False
fault_wdc: False
fault_bus1: False
fault_bus2: False
fault_calibration: False
fault_connector: True
---
header: 
  seq: 278715
  stamp: 
    secs: 1479424215
    nsecs: 328163849
  frame_id: ''
steering_wheel_angle: -0.0157079640776
steering_wheel_angle_cmd: 0.0
steering_wheel_torque: -0.3125
speed: 22.9861106873
enabled: False
override: False
driver: False
fault_wdc: False
fault_bus1: False
fault_bus2: False
fault_calibration: False
fault_connector: True
---
header: 
  seq: 278716
  stamp: 
    secs: 1479424215
    nsecs: 348160393
  frame_id: ''
steering_wheel_angle: -0.0157079640776
steering_wheel_angle_cmd: 0.0
steering_wheel_torque: 0.0
speed: 22.9944438934
enabled: False
override: False
driver: False
fault_wdc: False
fault_bus1: False
fault_bus2: False
fault_calibration: False
fault_connector: True
---
header: 
  seq: 278717
  stamp: 
    secs: 1479424215
    nsecs: 368202474
  frame_id: ''
steering_wheel_angle: -0.0157079640776
steering_wheel_angle_cmd: 0.0
steering_wheel_torque: -0.125
speed: 23.0
enabled: False
override: False
driver: False
fault_wdc: False
fault_bus1: False
fault_bus2: False
fault_calibration: False
fault_connector: True
---
header: 
  seq: 278718
  stamp: 
    secs: 1479424215
    nsecs: 388266825
  frame_id: ''
steering_wheel_angle: -0.0157079640776
steering_wheel_angle_cmd: 0.0
steering_wheel_torque: -0.375
speed: 22.9944438934
enabled: False
override: False
driver: False
fault_wdc: False
fault_bus1: False
fault_bus2: False
fault_calibration: False
fault_connector: True
---
header: 
  seq: 278719
  stamp: 
    secs: 1479424215
    nsecs: 408293846
  frame_id: ''
steering_wheel_angle: -0.0191986225545
steering_wheel_angle_cmd: 0.0
steering_wheel_torque: -0.625
speed: 22.9944438934
enabled: False
override: False
driver: False
fault_wdc: False
fault_bus1: False
fault_bus2: False
fault_calibration: False
fault_connector: True
---
header: 
  seq: 278720
  stamp: 
    secs: 1479424215
    nsecs: 428329197
  frame_id: ''
steering_wheel_angle: -0.0226892810315
steering_wheel_angle_cmd: 0.0
steering_wheel_torque: -0.4375
speed: 22.9972229004
enabled: False
override: False
driver: False
fault_wdc: False
fault_bus1: False
fault_bus2: False
fault_calibration: False
fault_connector: True
---
header: 
  seq: 278721
  stamp: 
    secs: 1479424215
    nsecs: 448359436
  frame_id: ''
steering_wheel_angle: -0.0261799395084
steering_wheel_angle_cmd: 0.0
steering_wheel_torque: -0.3125
speed: 23.0027770996
enabled: False
override: False
driver: False
fault_wdc: False
fault_bus1: False
fault_bus2: False
fault_calibration: False
fault_connector: True
---
header: 
  seq: 278722
  stamp: 
    secs: 1479424215
    nsecs: 468401919
  frame_id: ''
steering_wheel_angle: -0.0279252678156
steering_wheel_angle_cmd: 0.0
steering_wheel_torque: -0.375
speed: 22.9944438934
enabled: False
override: False
driver: False
fault_wdc: False
fault_bus1: False
fault_bus2: False
fault_calibration: False
fault_connector: True
---
header: 
  seq: 278723
  stamp: 
    secs: 1479424215
    nsecs: 488393291
  frame_id: ''
steering_wheel_angle: -0.0279252678156
steering_wheel_angle_cmd: 0.0
steering_wheel_torque: 0.0
speed: 22.9888896942
enabled: False
override: False
driver: False
fault_wdc: False
fault_bus1: False
fault_bus2: False
fault_calibration: False
fault_connector: True
---
header: 
  seq: 278724
  stamp: 
    secs: 1479424215
    nsecs: 508435095
  frame_id: ''
steering_wheel_angle: -0.0261799395084
steering_wheel_angle_cmd: 0.0
steering_wheel_torque: 0.1875
speed: 22.980556488
enabled: False
override: False
driver: False
fault_wdc: False
fault_bus1: False
fault_bus2: False
fault_calibration: False
fault_connector: True
---
header: 
  seq: 278725
  stamp: 
    secs: 1479424215
    nsecs: 528481355
  frame_id: ''
steering_wheel_angle: -0.0209439508617
steering_wheel_angle_cmd: 0.0
steering_wheel_torque: 0.1875
speed: 22.9750003815
enabled: False
override: False
driver: False
fault_wdc: False
fault_bus1: False
fault_bus2: False
fault_calibration: False
fault_connector: True
---
header: 
  seq: 278726
  stamp: 
    secs: 1479424215
    nsecs: 548521625
  frame_id: ''
steering_wheel_angle: -0.0191986225545
steering_wheel_angle_cmd: 0.0
steering_wheel_torque: 0.1875
speed: 22.9666671753
enabled: False
override: False
driver: False
fault_wdc: False
fault_bus1: False
fault_bus2: False
fault_calibration: False
fault_connector: True
---
header: 
  seq: 278727
  stamp: 
    secs: 1479424215
    nsecs: 568535561
  frame_id: ''
steering_wheel_angle: -0.0157079640776
steering_wheel_angle_cmd: 0.0
steering_wheel_torque: 0.0625
speed: 22.9527778625
enabled: False
override: False
driver: False
fault_wdc: False
fault_bus1: False
fault_bus2: False
fault_calibration: False
fault_connector: True
---
header: 
  seq: 278728
  stamp: 
    secs: 1479424215
    nsecs: 588641437
  frame_id: ''
steering_wheel_angle: -0.0157079640776
steering_wheel_angle_cmd: 0.0
steering_wheel_torque: 0.0
speed: 22.9555549622
enabled: False
override: False
driver: False
fault_wdc: False
fault_bus1: False
fault_bus2: False
fault_calibration: False
fault_connector: True
---
header: 
  seq: 278729
  stamp: 
    secs: 1479424215
    nsecs: 608644417
  frame_id: ''
steering_wheel_angle: -0.0174532923847
steering_wheel_angle_cmd: 0.0
steering_wheel_torque: -0.125
speed: 22.9500007629
enabled: False
override: False
driver: False
fault_wdc: False
fault_bus1: False
fault_bus2: False
fault_calibration: False
fault_connector: True
---
header: 
  seq: 278730
  stamp: 
    secs: 1479424215
    nsecs: 628648434
  frame_id: ''
steering_wheel_angle: -0.0191986225545
steering_wheel_angle_cmd: 0.0
steering_wheel_torque: -0.375
speed: 22.947221756
enabled: False
override: False
driver: False
fault_wdc: False
fault_bus1: False
fault_bus2: False
fault_calibration: False
fault_connector: True
---
header: 
  seq: 278731
  stamp: 
    secs: 1479424215
    nsecs: 648694646
  frame_id: ''
steering_wheel_angle: -0.0209439508617
steering_wheel_angle_cmd: 0.0
steering_wheel_torque: -0.375
speed: 22.9444446564
enabled: False
override: False
driver: False
fault_wdc: False
fault_bus1: False
fault_bus2: False
fault_calibration: False
fault_connector: True
---
header: 
  seq: 278732
  stamp: 
    secs: 1479424215
    nsecs: 668700580
  frame_id: ''
steering_wheel_angle: -0.0209439508617
steering_wheel_angle_cmd: 0.0
steering_wheel_torque: -0.25
speed: 22.9555549622
enabled: False
override: False
driver: False
fault_wdc: False
fault_bus1: False
fault_bus2: False
fault_calibration: False
fault_connector: True
---
header: 
  seq: 278733
  stamp: 
    secs: 1479424215
    nsecs: 688745678
  frame_id: ''
steering_wheel_angle: -0.0226892810315
steering_wheel_angle_cmd: 0.0
steering_wheel_torque: -0.3125
speed: 22.9611110687
enabled: False
override: False
driver: False
fault_wdc: False
fault_bus1: False
fault_bus2: False
fault_calibration: False
fault_connector: True
---
header: 
  seq: 278734
  stamp: 
    secs: 1479424215
    nsecs: 708789380
  frame_id: ''
steering_wheel_angle: -0.0226892810315
steering_wheel_angle_cmd: 0.0
steering_wheel_torque: -0.3125
speed: 22.9583339691
enabled: False
override: False
driver: False
fault_wdc: False
fault_bus1: False
fault_bus2: False
fault_calibration: False
fault_connector: True
---
header: 
  seq: 278735
  stamp: 
    secs: 1479424215
    nsecs: 728834102
  frame_id: ''
steering_wheel_angle: -0.0226892810315
steering_wheel_angle_cmd: 0.0
steering_wheel_torque: -0.1875
speed: 22.9638881683
enabled: False
override: False
driver: False
fault_wdc: False
fault_bus1: False
fault_bus2: False
fault_calibration: False
fault_connector: True
---
header: 
  seq: 278736
  stamp: 
    secs: 1479424215
    nsecs: 748838217
  frame_id: ''
steering_wheel_angle: -0.0226892810315
steering_wheel_angle_cmd: 0.0
steering_wheel_torque: -0.1875
speed: 22.9666671753
enabled: False
override: False
driver: False
fault_wdc: False
fault_bus1: False
fault_bus2: False
fault_calibration: False
fault_connector: True
---
header: 
  seq: 278737
  stamp: 
    secs: 1479424215
    nsecs: 768875547
  frame_id: ''
steering_wheel_angle: -0.0226892810315
steering_wheel_angle_cmd: 0.0
steering_wheel_torque: -0.0625
speed: 22.980556488
enabled: False
override: False
driver: False
fault_wdc: False
fault_bus1: False
fault_bus2: False
fault_calibration: False
fault_connector: True
---
header: 
  seq: 278738
  stamp: 
    secs: 1479424215
    nsecs: 788910794
  frame_id: ''
steering_wheel_angle: -0.0209439508617
steering_wheel_angle_cmd: 0.0
steering_wheel_torque: 0.375
speed: 22.980556488
enabled: False
override: False
driver: False
fault_wdc: False
fault_bus1: False
fault_bus2: False
fault_calibration: False
fault_connector: True
---
header: 
  seq: 278739
  stamp: 
    secs: 1479424215
    nsecs: 808970155
  frame_id: ''
steering_wheel_angle: -0.0157079640776
steering_wheel_angle_cmd: 0.0
steering_wheel_torque: 0.5625
speed: 22.9861106873
enabled: False
override: False
driver: False
fault_wdc: False
fault_bus1: False
fault_bus2: False
fault_calibration: False
fault_connector: True
---
header: 
  seq: 278740
  stamp: 
    secs: 1479424215
    nsecs: 828969752
  frame_id: ''
steering_wheel_angle: -0.0104719754308
steering_wheel_angle_cmd: 0.0
steering_wheel_torque: 0.4375
speed: 22.9916667938
enabled: False
override: False
driver: False
fault_wdc: False
fault_bus1: False
fault_bus2: False
fault_calibration: False
fault_connector: True
---
header: 
  seq: 278741
  stamp: 
    secs: 1479424215
    nsecs: 849020144
  frame_id: ''
steering_wheel_angle: -0.00349065847695
steering_wheel_angle_cmd: 0.0
steering_wheel_torque: 0.4375
speed: 23.0
enabled: False
override: False
driver: False
fault_wdc: False
fault_bus1: False
fault_bus2: False
fault_calibration: False
fault_connector: True
---
header: 
  seq: 278742
  stamp: 
    secs: 1479424215
    nsecs: 869060453
  frame_id: ''
steering_wheel_angle: 0.0
steering_wheel_angle_cmd: 0.0
steering_wheel_torque: 0.375
speed: 23.0027770996
enabled: False
override: False
driver: False
fault_wdc: False
fault_bus1: False
fault_bus2: False
fault_calibration: False
fault_connector: True
---
header: 
  seq: 278743
  stamp: 
    secs: 1479424215
    nsecs: 889078254
  frame_id: ''
steering_wheel_angle: 0.00174532923847
steering_wheel_angle_cmd: 0.0
steering_wheel_torque: 0.375
speed: 23.0055561066
enabled: False
override: False
driver: False
fault_wdc: False
fault_bus1: False
fault_bus2: False
fault_calibration: False
fault_connector: True
---
header: 
  seq: 278744
  stamp: 
    secs: 1479424215
    nsecs: 909100030
  frame_id: ''
steering_wheel_angle: 0.00349065847695
steering_wheel_angle_cmd: 0.0
steering_wheel_torque: 0.4375
speed: 23.0111103058
enabled: False
override: False
driver: False
fault_wdc: False
fault_bus1: False
fault_bus2: False
fault_calibration: False
fault_connector: True
---
header: 
  seq: 278745
  stamp: 
    secs: 1479424215
    nsecs: 929149299
  frame_id: ''
steering_wheel_angle: 0.00349065847695
steering_wheel_angle_cmd: 0.0
steering_wheel_torque: 0.375
speed: 23.0055561066
enabled: False
override: False
driver: False
fault_wdc: False
fault_bus1: False
fault_bus2: False
fault_calibration: False
fault_connector: True
---
header: 
  seq: 278746
  stamp: 
    secs: 1479424215
    nsecs: 949184948
  frame_id: ''
steering_wheel_angle: 0.00349065847695
steering_wheel_angle_cmd: 0.0
steering_wheel_torque: 0.3125
speed: 23.0111103058
enabled: False
override: False
driver: False
fault_wdc: False
fault_bus1: False
fault_bus2: False
fault_calibration: False
fault_connector: True
---
header: 
  seq: 278747
  stamp: 
    secs: 1479424215
    nsecs: 969247840
  frame_id: ''
steering_wheel_angle: 0.00349065847695
steering_wheel_angle_cmd: 0.0
steering_wheel_torque: 0.375
speed: 23.0083332062
enabled: False
override: False
driver: False
fault_wdc: False
fault_bus1: False
fault_bus2: False
fault_calibration: False
fault_connector: True
---
header: 
  seq: 278748
  stamp: 
    secs: 1479424215
    nsecs: 989267254
  frame_id: ''
steering_wheel_angle: 0.00349065847695
steering_wheel_angle_cmd: 0.0
steering_wheel_torque: 0.3125
speed: 23.0083332062
enabled: False
override: False
driver: False
fault_wdc: False
fault_bus1: False
fault_bus2: False
fault_calibration: False
fault_connector: True
---
header: 
  seq: 278749
  stamp: 
    secs: 1479424216
    nsecs: 009308940
  frame_id: ''
steering_wheel_angle: 0.00349065847695
steering_wheel_angle_cmd: 0.0
steering_wheel_torque: 0.4375
speed: 23.0083332062
enabled: False
override: False
driver: False
fault_wdc: False
fault_bus1: False
fault_bus2: False
fault_calibration: False
fault_connector: True
---
header: 
  seq: 278750
  stamp: 
    secs: 1479424216
    nsecs: 029312603
  frame_id: ''
steering_wheel_angle: 0.00523598771542
steering_wheel_angle_cmd: 0.0
steering_wheel_torque: 0.5
speed: 23.0055561066
enabled: False
override: False
driver: False
fault_wdc: False
fault_bus1: False
fault_bus2: False
fault_calibration: False
fault_connector: True
---
header: 
  seq: 278751
  stamp: 
    secs: 1479424216
    nsecs: 049350273
  frame_id: ''
steering_wheel_angle: 0.00523598771542
steering_wheel_angle_cmd: 0.0
steering_wheel_torque: 0.375
speed: 23.0
enabled: False
override: False
driver: False
fault_wdc: False
fault_bus1: False
fault_bus2: False
fault_calibration: False
fault_connector: True
---
header: 
  seq: 278752
  stamp: 
    secs: 1479424216
    nsecs: 069399492
  frame_id: ''
steering_wheel_angle: 0.00523598771542
steering_wheel_angle_cmd: 0.0
steering_wheel_torque: 0.5
speed: 22.9944438934
enabled: False
override: False
driver: False
fault_wdc: False
fault_bus1: False
fault_bus2: False
fault_calibration: False
fault_connector: True
---
header: 
  seq: 278753
  stamp: 
    secs: 1479424216
    nsecs: 089395275
  frame_id: ''
steering_wheel_angle: 0.0069813169539
steering_wheel_angle_cmd: 0.0
steering_wheel_torque: 0.625
speed: 23.0083332062
enabled: False
override: False
driver: False
fault_wdc: False
fault_bus1: False
fault_bus2: False
fault_calibration: False
fault_connector: True
---
header: 
  seq: 278754
  stamp: 
    secs: 1479424216
    nsecs: 109446692
  frame_id: ''
steering_wheel_angle: 0.00872664619237
steering_wheel_angle_cmd: 0.0
steering_wheel_torque: 0.625
speed: 23.0138893127
enabled: False
override: False
driver: False
fault_wdc: False
fault_bus1: False
fault_bus2: False
fault_calibration: False
fault_connector: True
---
header: 
  seq: 278755
  stamp: 
    secs: 1479424216
    nsecs: 129491752
  frame_id: ''
steering_wheel_angle: 0.0139626339078
steering_wheel_angle_cmd: 0.0
steering_wheel_torque: 0.75
speed: 23.0166664124
enabled: False
override: False
driver: False
fault_wdc: False
fault_bus1: False
fault_bus2: False
fault_calibration: False
fault_connector: True
---
header: 
  seq: 278756
  stamp: 
    secs: 1479424216
    nsecs: 149619950
  frame_id: ''
steering_wheel_angle: 0.0191986225545
steering_wheel_angle_cmd: 0.0
steering_wheel_torque: 0.625
speed: 23.0055561066
enabled: False
override: False
driver: False
fault_wdc: False
fault_bus1: False
fault_bus2: False
fault_calibration: False
fault_connector: True
---
header: 
  seq: 278757
  stamp: 
    secs: 1479424216
    nsecs: 169631248
  frame_id: ''
steering_wheel_angle: 0.0209439508617
steering_wheel_angle_cmd: 0.0
steering_wheel_torque: 0.6875
speed: 23.0111103058
enabled: False
override: False
driver: False
fault_wdc: False
fault_bus1: False
fault_bus2: False
fault_calibration: False
fault_connector: True
---
header: 
  seq: 278758
  stamp: 
    secs: 1479424216
    nsecs: 189638029
  frame_id: ''
steering_wheel_angle: 0.0261799395084
steering_wheel_angle_cmd: 0.0
steering_wheel_torque: 0.625
speed: 23.0138893127
enabled: False
override: False
driver: False
fault_wdc: False
fault_bus1: False
fault_bus2: False
fault_calibration: False
fault_connector: True
---
header: 
  seq: 278759
  stamp: 
    secs: 1479424216
    nsecs: 209633261
  frame_id: ''
steering_wheel_angle: 0.0296705979854
steering_wheel_angle_cmd: 0.0
steering_wheel_torque: 0.75
speed: 23.0222225189
enabled: False
override: False
driver: False
fault_wdc: False
fault_bus1: False
fault_bus2: False
fault_calibration: False
fault_connector: True
---
header: 
  seq: 278760
  stamp: 
    secs: 1479424216
    nsecs: 229689083
  frame_id: ''
steering_wheel_angle: 0.0331612564623
steering_wheel_angle_cmd: 0.0
steering_wheel_torque: 0.5625
speed: 23.019443512
enabled: False
override: False
driver: False
fault_wdc: False
fault_bus1: False
fault_bus2: False
fault_calibration: False
fault_connector: True
---
header: 
  seq: 278761
  stamp: 
    secs: 1479424216
    nsecs: 249704897
  frame_id: ''
steering_wheel_angle: 0.0331612564623
steering_wheel_angle_cmd: 0.0
steering_wheel_torque: 0.5625
speed: 23.0111103058
enabled: False
override: False
driver: False
fault_wdc: False
fault_bus1: False
fault_bus2: False
fault_calibration: False
fault_connector: True
---
header: 
  seq: 278762
  stamp: 
    secs: 1479424216
    nsecs: 269704167
  frame_id: ''
steering_wheel_angle: 0.0331612564623
steering_wheel_angle_cmd: 0.0
steering_wheel_torque: 0.4375
speed: 23.0138893127
enabled: False
override: False
driver: False
fault_wdc: False
fault_bus1: False
fault_bus2: False
fault_calibration: False
fault_connector: True
---
header: 
  seq: 278763
  stamp: 
    secs: 1479424216
    nsecs: 289735342
  frame_id: ''
steering_wheel_angle: 0.0314159281552
steering_wheel_angle_cmd: 0.0
steering_wheel_torque: 0.1875
speed: 23.019443512
enabled: False
override: False
driver: False
fault_wdc: False
fault_bus1: False
fault_bus2: False
fault_calibration: False
fault_connector: True
---
header: 
  seq: 278764
  stamp: 
    secs: 1479424216
    nsecs: 309785583
  frame_id: ''
steering_wheel_angle: 0.0314159281552
steering_wheel_angle_cmd: 0.0
steering_wheel_torque: 0.25
speed: 23.0333328247
enabled: False
override: False
driver: False
fault_wdc: False
fault_bus1: False
fault_bus2: False
fault_calibration: False
fault_connector: True
---
header: 
  seq: 278765
  stamp: 
    secs: 1479424216
    nsecs: 329826038
  frame_id: ''
steering_wheel_angle: 0.0296705979854
steering_wheel_angle_cmd: 0.0
steering_wheel_torque: 0.1875
speed: 23.0333328247
enabled: False
override: False
driver: False
fault_wdc: False
fault_bus1: False
fault_bus2: False
fault_calibration: False
fault_connector: True
---
header: 
  seq: 278766
  stamp: 
    secs: 1479424216
    nsecs: 349887951
  frame_id: ''
steering_wheel_angle: 0.0279252678156
steering_wheel_angle_cmd: 0.0
steering_wheel_torque: 0.1875
speed: 23.0388889313
enabled: False
override: False
driver: False
fault_wdc: False
fault_bus1: False
fault_bus2: False
fault_calibration: False
fault_connector: True
---
header: 
  seq: 278767
  stamp: 
    secs: 1479424216
    nsecs: 369910793
  frame_id: ''
steering_wheel_angle: 0.0279252678156
steering_wheel_angle_cmd: 0.0
steering_wheel_torque: 0.1875
speed: 23.0444450378
enabled: False
override: False
driver: False
fault_wdc: False
fault_bus1: False
fault_bus2: False
fault_calibration: False
fault_connector: True
---
header: 
  seq: 278768
  stamp: 
    secs: 1479424216
    nsecs: 389933506
  frame_id: ''
steering_wheel_angle: 0.0279252678156
steering_wheel_angle_cmd: 0.0
steering_wheel_torque: 0.25
speed: 23.0583324432
enabled: False
override: False
driver: False
fault_wdc: False
fault_bus1: False
fault_bus2: False
fault_calibration: False
fault_connector: True
---
header: 
  seq: 278769
  stamp: 
    secs: 1479424216
    nsecs: 409964821
  frame_id: ''
steering_wheel_angle: 0.0279252678156
steering_wheel_angle_cmd: 0.0
steering_wheel_torque: 0.375
speed: 23.072221756
enabled: False
override: False
driver: False
fault_wdc: False
fault_bus1: False
fault_bus2: False
fault_calibration: False
fault_connector: True
---
header: 
  seq: 278770
  stamp: 
    secs: 1479424216
    nsecs: 430012623
  frame_id: ''
steering_wheel_angle: 0.0279252678156
steering_wheel_angle_cmd: 0.0
steering_wheel_torque: 0.5625
speed: 23.0777778625
enabled: False
override: False
driver: False
fault_wdc: False
fault_bus1: False
fault_bus2: False
fault_calibration: False
fault_connector: True
---
header: 
  seq: 278771
  stamp: 
    secs: 1479424216
    nsecs: 450016768
  frame_id: ''
steering_wheel_angle: 0.0296705979854
steering_wheel_angle_cmd: 0.0
steering_wheel_torque: 0.625
speed: 23.0916671753
enabled: False
override: False
driver: False
fault_wdc: False
fault_bus1: False
fault_bus2: False
fault_calibration: False
fault_connector: True
---
header: 
  seq: 278772
  stamp: 
    secs: 1479424216
    nsecs: 470074902
  frame_id: ''
steering_wheel_angle: 0.0314159281552
steering_wheel_angle_cmd: 0.0
steering_wheel_torque: 0.625
speed: 23.0972213745
enabled: False
override: False
driver: False
fault_wdc: False
fault_bus1: False
fault_bus2: False
fault_calibration: False
fault_connector: True
---
header: 
  seq: 278773
  stamp: 
    secs: 1479424216
    nsecs: 490124518
  frame_id: ''
steering_wheel_angle: 0.0349065847695
steering_wheel_angle_cmd: 0.0
steering_wheel_torque: 0.625
speed: 23.105556488
enabled: False
override: False
driver: False
fault_wdc: False
fault_bus1: False
fault_bus2: False
fault_calibration: False
fault_connector: True
---
header: 
  seq: 278774
  stamp: 
    secs: 1479424216
    nsecs: 510141445
  frame_id: ''
steering_wheel_angle: 0.0366519130766
steering_wheel_angle_cmd: 0.0
steering_wheel_torque: 0.5625
speed: 23.1000003815
enabled: False
override: False
driver: False
fault_wdc: False
fault_bus1: False
fault_bus2: False
fault_calibration: False
fault_connector: True
---
header: 
  seq: 278775
  stamp: 
    secs: 1479424216
    nsecs: 530307364
  frame_id: ''
steering_wheel_angle: 0.0366519130766
steering_wheel_angle_cmd: 0.0
steering_wheel_torque: 0.5625
speed: 23.0944442749
enabled: False
override: False
driver: False
fault_wdc: False
fault_bus1: False
fault_bus2: False
fault_calibration: False
fault_connector: True
---
header: 
  seq: 278776
  stamp: 
    secs: 1479424216
    nsecs: 550242152
  frame_id: ''
steering_wheel_angle: 0.0349065847695
steering_wheel_angle_cmd: 0.0
steering_wheel_torque: 0.375
speed: 23.0944442749
enabled: False
override: False
driver: False
fault_wdc: False
fault_bus1: False
fault_bus2: False
fault_calibration: False
fault_connector: True
---
header: 
  seq: 278777
  stamp: 
    secs: 1479424216
    nsecs: 570270099
  frame_id: ''
steering_wheel_angle: 0.0349065847695
steering_wheel_angle_cmd: 0.0
steering_wheel_torque: 0.3125
speed: 23.1000003815
enabled: False
override: False
driver: False
fault_wdc: False
fault_bus1: False
fault_bus2: False
fault_calibration: False
fault_connector: True
---
header: 
  seq: 278778
  stamp: 
    secs: 1479424216
    nsecs: 590277828
  frame_id: ''
steering_wheel_angle: 0.0331612564623
steering_wheel_angle_cmd: 0.0
steering_wheel_torque: 0.25
speed: 23.1027774811
enabled: False
override: False
driver: False
fault_wdc: False
fault_bus1: False
fault_bus2: False
fault_calibration: False
fault_connector: True
---
header: 
  seq: 278779
  stamp: 
    secs: 1479424216
    nsecs: 610321234
  frame_id: ''
steering_wheel_angle: 0.0331612564623
steering_wheel_angle_cmd: 0.0
steering_wheel_torque: 0.3125
speed: 23.0944442749
enabled: False
override: False
driver: False
fault_wdc: False
fault_bus1: False
fault_bus2: False
fault_calibration: False
fault_connector: True
---
header: 
  seq: 278780
  stamp: 
    secs: 1479424216
    nsecs: 630350956
  frame_id: ''
steering_wheel_angle: 0.0331612564623
steering_wheel_angle_cmd: 0.0
steering_wheel_torque: 0.375
speed: 23.0944442749
enabled: False
override: False
driver: False
fault_wdc: False
fault_bus1: False
fault_bus2: False
fault_calibration: False
fault_connector: True
---
header: 
  seq: 278781
  stamp: 
    secs: 1479424216
    nsecs: 650366546
  frame_id: ''
steering_wheel_angle: 0.0331612564623
steering_wheel_angle_cmd: 0.0
steering_wheel_torque: 0.25
speed: 23.0861110687
enabled: False
override: False
driver: False
fault_wdc: False
fault_bus1: False
fault_bus2: False
fault_calibration: False
fault_connector: True
---
header: 
  seq: 278782
  stamp: 
    secs: 1479424216
    nsecs: 670432722
  frame_id: ''
steering_wheel_angle: 0.0331612564623
steering_wheel_angle_cmd: 0.0
steering_wheel_torque: 0.1875
speed: 23.0916671753
enabled: False
override: False
driver: False
fault_wdc: False
fault_bus1: False
fault_bus2: False
fault_calibration: False
fault_connector: True
---
header: 
  seq: 278783
  stamp: 
    secs: 1479424216
    nsecs: 690437404
  frame_id: ''
steering_wheel_angle: 0.0331612564623
steering_wheel_angle_cmd: 0.0
steering_wheel_torque: 0.125
speed: 23.0861110687
enabled: False
override: False
driver: False
fault_wdc: False
fault_bus1: False
fault_bus2: False
fault_calibration: False
fault_connector: True
---
header: 
  seq: 278784
  stamp: 
    secs: 1479424216
    nsecs: 710464304
  frame_id: ''
steering_wheel_angle: 0.0331612564623
steering_wheel_angle_cmd: 0.0
steering_wheel_torque: 0.1875
speed: 23.0805549622
enabled: False
override: False
driver: False
fault_wdc: False
fault_bus1: False
fault_bus2: False
fault_calibration: False
fault_connector: True
---
header: 
  seq: 278785
  stamp: 
    secs: 1479424216
    nsecs: 730486027
  frame_id: ''
steering_wheel_angle: 0.0314159281552
steering_wheel_angle_cmd: 0.0
steering_wheel_torque: 0.0
speed: 23.0750007629
enabled: False
override: False
driver: False
fault_wdc: False
fault_bus1: False
fault_bus2: False
fault_calibration: False
fault_connector: True
---
header: 
  seq: 278786
  stamp: 
    secs: 1479424216
    nsecs: 750534925
  frame_id: ''
steering_wheel_angle: 0.0279252678156
steering_wheel_angle_cmd: 0.0
steering_wheel_torque: 0.125
speed: 23.0750007629
enabled: False
override: False
driver: False
fault_wdc: False
fault_bus1: False
fault_bus2: False
fault_calibration: False
fault_connector: True
---
header: 
  seq: 278787
  stamp: 
    secs: 1479424216
    nsecs: 770620822
  frame_id: ''
steering_wheel_angle: 0.0279252678156
steering_wheel_angle_cmd: 0.0
steering_wheel_torque: 0.125
speed: 23.072221756
enabled: False
override: False
driver: False
fault_wdc: False
fault_bus1: False
fault_bus2: False
fault_calibration: False
fault_connector: True
---
header: 
  seq: 278788
  stamp: 
    secs: 1479424216
    nsecs: 790690542
  frame_id: ''
steering_wheel_angle: 0.0261799395084
steering_wheel_angle_cmd: 0.0
steering_wheel_torque: -0.0625
speed: 23.0611114502
enabled: False
override: False
driver: False
fault_wdc: False
fault_bus1: False
fault_bus2: False
fault_calibration: False
fault_connector: True
---
header: 
  seq: 278789
  stamp: 
    secs: 1479424216
    nsecs: 810659401
  frame_id: ''
steering_wheel_angle: 0.0261799395084
steering_wheel_angle_cmd: 0.0
steering_wheel_torque: -0.125
speed: 23.0611114502
enabled: False
override: False
driver: False
fault_wdc: False
fault_bus1: False
fault_bus2: False
fault_calibration: False
fault_connector: True
---
header: 
  seq: 278790
  stamp: 
    secs: 1479424216
    nsecs: 830689732
  frame_id: ''
steering_wheel_angle: 0.0244346093386
steering_wheel_angle_cmd: 0.0
steering_wheel_torque: -0.0625
speed: 23.0666675568
enabled: False
override: False
driver: False
fault_wdc: False
fault_bus1: False
fault_bus2: False
fault_calibration: False
fault_connector: True
---
header: 
  seq: 278791
  stamp: 
    secs: 1479424216
    nsecs: 850735348
  frame_id: ''
steering_wheel_angle: 0.0209439508617
steering_wheel_angle_cmd: 0.0
steering_wheel_torque: -0.0625
speed: 23.0777778625
enabled: False
override: False
driver: False
fault_wdc: False
fault_bus1: False
fault_bus2: False
fault_calibration: False
fault_connector: True
---
header: 
  seq: 278792
  stamp: 
    secs: 1479424216
    nsecs: 870743224
  frame_id: ''
steering_wheel_angle: 0.0191986225545
steering_wheel_angle_cmd: 0.0
steering_wheel_torque: -0.1875
speed: 23.0777778625
enabled: False
override: False
driver: False
fault_wdc: False
fault_bus1: False
fault_bus2: False
fault_calibration: False
fault_connector: True
---
header: 
  seq: 278793
  stamp: 
    secs: 1479424216
    nsecs: 890937991
  frame_id: ''
steering_wheel_angle: 0.0139626339078
steering_wheel_angle_cmd: 0.0
steering_wheel_torque: -0.0625
speed: 23.0888881683
enabled: False
override: False
driver: False
fault_wdc: False
fault_bus1: False
fault_bus2: False
fault_calibration: False
fault_connector: True
---
header: 
  seq: 278794
  stamp: 
    secs: 1479424216
    nsecs: 910787885
  frame_id: ''
steering_wheel_angle: 0.0104719754308
steering_wheel_angle_cmd: 0.0
steering_wheel_torque: -0.125
speed: 23.0972213745
enabled: False
override: False
driver: False
fault_wdc: False
fault_bus1: False
fault_bus2: False
fault_calibration: False
fault_connector: True
---
header: 
  seq: 278795
  stamp: 
    secs: 1479424216
    nsecs: 930838660
  frame_id: ''
steering_wheel_angle: 0.0069813169539
steering_wheel_angle_cmd: 0.0
steering_wheel_torque: 0.125
speed: 23.1194438934
enabled: False
override: False
driver: False
fault_wdc: False
fault_bus1: False
fault_bus2: False
fault_calibration: False
fault_connector: True
---
header: 
  seq: 278796
  stamp: 
    secs: 1479424216
    nsecs: 950872043
  frame_id: ''
steering_wheel_angle: 0.0069813169539
steering_wheel_angle_cmd: 0.0
steering_wheel_torque: 0.1875
speed: 23.1388893127
enabled: False
override: False
driver: False
fault_wdc: False
fault_bus1: False
fault_bus2: False
fault_calibration: False
fault_connector: True
---
header: 
  seq: 278797
  stamp: 
    secs: 1479424216
    nsecs: 970913216
  frame_id: ''
steering_wheel_angle: 0.0069813169539
steering_wheel_angle_cmd: 0.0
steering_wheel_torque: 0.125
speed: 23.1333332062
enabled: False
override: False
driver: False
fault_wdc: False
fault_bus1: False
fault_bus2: False
fault_calibration: False
fault_connector: True
---
header: 
  seq: 278798
  stamp: 
    secs: 1479424216
    nsecs: 991164699
  frame_id: ''
steering_wheel_angle: 0.0069813169539
steering_wheel_angle_cmd: 0.0
steering_wheel_torque: 0.375
speed: 23.1416664124
enabled: False
override: False
driver: False
fault_wdc: False
fault_bus1: False
fault_bus2: False
fault_calibration: False
fault_connector: True
---
header: 
  seq: 278799
  stamp: 
    secs: 1479424217
    nsecs: 011241879
  frame_id: ''
steering_wheel_angle: 0.0069813169539
steering_wheel_angle_cmd: 0.0
steering_wheel_torque: 0.4375
speed: 23.1499996185
enabled: False
override: False
driver: False
fault_wdc: False
fault_bus1: False
fault_bus2: False
fault_calibration: False
fault_connector: True
---
header: 
  seq: 278800
  stamp: 
    secs: 1479424217
    nsecs: 030989486
  frame_id: ''
steering_wheel_angle: 0.0069813169539
steering_wheel_angle_cmd: 0.0
steering_wheel_torque: 0.5625
speed: 23.1666660309
enabled: False
override: False
driver: False
fault_wdc: False
fault_bus1: False
fault_bus2: False
fault_calibration: False
fault_connector: True
---
header: 
  seq: 278801
  stamp: 
    secs: 1479424217
    nsecs: 051056249
  frame_id: ''
steering_wheel_angle: 0.0104719754308
steering_wheel_angle_cmd: 0.0
steering_wheel_torque: 0.875
speed: 23.1749992371
enabled: False
override: False
driver: False
fault_wdc: False
fault_bus1: False
fault_bus2: False
fault_calibration: False
fault_connector: True
---
header: 
  seq: 278802
  stamp: 
    secs: 1479424217
    nsecs: 071099544
  frame_id: ''
steering_wheel_angle: 0.0157079640776
steering_wheel_angle_cmd: 0.0
steering_wheel_torque: 0.6875
speed: 23.1694450378
enabled: False
override: False
driver: False
fault_wdc: False
fault_bus1: False
fault_bus2: False
fault_calibration: False
fault_connector: True
---
header: 
  seq: 278803
  stamp: 
    secs: 1479424217
    nsecs: 091185030
  frame_id: ''
steering_wheel_angle: 0.0157079640776
steering_wheel_angle_cmd: 0.0
steering_wheel_torque: 0.625
speed: 23.1694450378
enabled: False
override: False
driver: False
fault_wdc: False
fault_bus1: False
fault_bus2: False
fault_calibration: False
fault_connector: True
---
header: 
  seq: 278804
  stamp: 
    secs: 1479424217
    nsecs: 111137840
  frame_id: ''
steering_wheel_angle: 0.0174532923847
steering_wheel_angle_cmd: 0.0
steering_wheel_torque: 0.5625
speed: 23.1722221375
enabled: False
override: False
driver: False
fault_wdc: False
fault_bus1: False
fault_bus2: False
fault_calibration: False
fault_connector: True
---
header: 
  seq: 278805
  stamp: 
    secs: 1479424217
    nsecs: 131184649
  frame_id: ''
steering_wheel_angle: 0.0191986225545
steering_wheel_angle_cmd: 0.0
steering_wheel_torque: 0.5625
speed: 23.1833324432
enabled: False
override: False
driver: False
fault_wdc: False
fault_bus1: False
fault_bus2: False
fault_calibration: False
fault_connector: True
---
header: 
  seq: 278806
  stamp: 
    secs: 1479424217
    nsecs: 151233618
  frame_id: ''
steering_wheel_angle: 0.0191986225545
steering_wheel_angle_cmd: 0.0
steering_wheel_torque: 0.5625
speed: 23.177778244
enabled: False
override: False
driver: False
fault_wdc: False
fault_bus1: False
fault_bus2: False
fault_calibration: False
fault_connector: True
---
header: 
  seq: 278807
  stamp: 
    secs: 1479424217
    nsecs: 171244565
  frame_id: ''
steering_wheel_angle: 0.0174532923847
steering_wheel_angle_cmd: 0.0
steering_wheel_torque: 0.4375
speed: 23.177778244
enabled: False
override: False
driver: False
fault_wdc: False
fault_bus1: False
fault_bus2: False
fault_calibration: False
fault_connector: True
---
header: 
  seq: 278808
  stamp: 
    secs: 1479424217
    nsecs: 191411445
  frame_id: ''
steering_wheel_angle: 0.0174532923847
steering_wheel_angle_cmd: 0.0
steering_wheel_torque: 0.25
speed: 23.1749992371
enabled: False
override: False
driver: False
fault_wdc: False
fault_bus1: False
fault_bus2: False
fault_calibration: False
fault_connector: True
---
header: 
  seq: 278809
  stamp: 
    secs: 1479424217
    nsecs: 211304356
  frame_id: ''
steering_wheel_angle: 0.0157079640776
steering_wheel_angle_cmd: 0.0
steering_wheel_torque: 0.375
speed: 23.1833324432
enabled: False
override: False
driver: False
fault_wdc: False
fault_bus1: False
fault_bus2: False
fault_calibration: False
fault_connector: True
---
header: 
  seq: 278810
  stamp: 
    secs: 1479424217
    nsecs: 231355198
  frame_id: ''
steering_wheel_angle: 0.0157079640776
steering_wheel_angle_cmd: 0.0
steering_wheel_torque: 0.375
speed: 23.1916675568
enabled: False
override: False
driver: False
fault_wdc: False
fault_bus1: False
fault_bus2: False
fault_calibration: False
fault_connector: True
---
header: 
  seq: 278811
  stamp: 
    secs: 1479424217
    nsecs: 251442582
  frame_id: ''
steering_wheel_angle: 0.0174532923847
steering_wheel_angle_cmd: 0.0
steering_wheel_torque: 0.5625
speed: 23.1805553436
enabled: False
override: False
driver: False
fault_wdc: False
fault_bus1: False
fault_bus2: False
fault_calibration: False
fault_connector: True
---
header: 
  seq: 278812
  stamp: 
    secs: 1479424217
    nsecs: 271411548
  frame_id: ''
steering_wheel_angle: 0.0174532923847
steering_wheel_angle_cmd: 0.0
steering_wheel_torque: 0.4375
speed: 23.1722221375
enabled: False
override: False
driver: False
fault_wdc: False
fault_bus1: False
fault_bus2: False
fault_calibration: False
fault_connector: True
---
header: 
  seq: 278813
  stamp: 
    secs: 1479424217
    nsecs: 291620313
  frame_id: ''
steering_wheel_angle: 0.0157079640776
steering_wheel_angle_cmd: 0.0
steering_wheel_torque: 0.5
speed: 23.177778244
enabled: False
override: False
driver: False
fault_wdc: False
fault_bus1: False
fault_bus2: False
fault_calibration: False
fault_connector: True
---
header: 
  seq: 278814
  stamp: 
    secs: 1479424217
    nsecs: 311518861
  frame_id: ''
steering_wheel_angle: 0.0191986225545
steering_wheel_angle_cmd: 0.0
steering_wheel_torque: 0.5
speed: 23.1805553436
enabled: False
override: False
driver: False
fault_wdc: False
fault_bus1: False
fault_bus2: False
fault_calibration: False
fault_connector: True
---
header: 
  seq: 278815
  stamp: 
    secs: 1479424217
    nsecs: 331513194
  frame_id: ''
steering_wheel_angle: 0.0191986225545
steering_wheel_angle_cmd: 0.0
steering_wheel_torque: 0.375
speed: 23.1749992371
enabled: False
override: False
driver: False
fault_wdc: False
fault_bus1: False
fault_bus2: False
fault_calibration: False
fault_connector: True
---
header: 
  seq: 278816
  stamp: 
    secs: 1479424217
    nsecs: 351617633
  frame_id: ''
steering_wheel_angle: 0.0174532923847
steering_wheel_angle_cmd: 0.0
steering_wheel_torque: 0.5
speed: 23.1638889313
enabled: False
override: False
driver: False
fault_wdc: False
fault_bus1: False
fault_bus2: False
fault_calibration: False
fault_connector: True
---
header: 
  seq: 278817
  stamp: 
    secs: 1479424217
    nsecs: 371632512
  frame_id: ''
steering_wheel_angle: 0.0174532923847
steering_wheel_angle_cmd: 0.0
steering_wheel_torque: 0.3125
speed: 23.1555557251
enabled: False
override: False
driver: False
fault_wdc: False
fault_bus1: False
fault_bus2: False
fault_calibration: False
fault_connector: True
---
header: 
  seq: 278818
  stamp: 
    secs: 1479424217
    nsecs: 391646466
  frame_id: ''
steering_wheel_angle: 0.0174532923847
steering_wheel_angle_cmd: 0.0
steering_wheel_torque: 0.25
speed: 23.1611118317
enabled: False
override: False
driver: False
fault_wdc: False
fault_bus1: False
fault_bus2: False
fault_calibration: False
fault_connector: True
---
header: 
  seq: 278819
  stamp: 
    secs: 1479424217
    nsecs: 411660458
  frame_id: ''
steering_wheel_angle: 0.0174532923847
steering_wheel_angle_cmd: 0.0
steering_wheel_torque: 0.375
speed: 23.1499996185
enabled: False
override: False
driver: False
fault_wdc: False
fault_bus1: False
fault_bus2: False
fault_calibration: False
fault_connector: True
---
header: 
  seq: 278820
  stamp: 
    secs: 1479424217
    nsecs: 431691314
  frame_id: ''
steering_wheel_angle: 0.0174532923847
steering_wheel_angle_cmd: 0.0
steering_wheel_torque: 0.25
speed: 23.144443512
enabled: False
override: False
driver: False
fault_wdc: False
fault_bus1: False
fault_bus2: False
fault_calibration: False
fault_connector: True
---
header: 
  seq: 278821
  stamp: 
    secs: 1479424217
    nsecs: 451737036
  frame_id: ''
steering_wheel_angle: 0.0157079640776
steering_wheel_angle_cmd: 0.0
steering_wheel_torque: 0.3125
speed: 23.1416664124
enabled: False
override: False
driver: False
fault_wdc: False
fault_bus1: False
fault_bus2: False
fault_calibration: False
fault_connector: True
---
header: 
  seq: 278822
  stamp: 
    secs: 1479424217
    nsecs: 471747981
  frame_id: ''
steering_wheel_angle: 0.0174532923847
steering_wheel_angle_cmd: 0.0
steering_wheel_torque: 0.3125
speed: 23.1416664124
enabled: False
override: False
driver: False
fault_wdc: False
fault_bus1: False
fault_bus2: False
fault_calibration: False
fault_connector: True
---
header: 
  seq: 278823
  stamp: 
    secs: 1479424217
    nsecs: 491790629
  frame_id: ''
steering_wheel_angle: 0.0174532923847
steering_wheel_angle_cmd: 0.0
steering_wheel_torque: 0.0
speed: 23.1333332062
enabled: False
override: False
driver: False
fault_wdc: False
fault_bus1: False
fault_bus2: False
fault_calibration: False
fault_connector: True
---
header: 
  seq: 278824
  stamp: 
    secs: 1479424217
    nsecs: 511822270
  frame_id: ''
steering_wheel_angle: 0.0157079640776
steering_wheel_angle_cmd: 0.0
steering_wheel_torque: 0.25
speed: 23.1222229004
enabled: False
override: False
driver: False
fault_wdc: False
fault_bus1: False
fault_bus2: False
fault_calibration: False
fault_connector: True
---
header: 
  seq: 278825
  stamp: 
    secs: 1479424217
    nsecs: 531869713
  frame_id: ''
steering_wheel_angle: 0.0157079640776
steering_wheel_angle_cmd: 0.0
steering_wheel_torque: 0.3125
speed: 23.1194438934
enabled: False
override: False
driver: False
fault_wdc: False
fault_bus1: False
fault_bus2: False
fault_calibration: False
fault_connector: True
---
header: 
  seq: 278826
  stamp: 
    secs: 1479424217
    nsecs: 551910975
  frame_id: ''
steering_wheel_angle: 0.0157079640776
steering_wheel_angle_cmd: 0.0
steering_wheel_torque: 0.0625
speed: 23.1138896942
enabled: False
override: False
driver: False
fault_wdc: False
fault_bus1: False
fault_bus2: False
fault_calibration: False
fault_connector: True
---
header: 
  seq: 278827
  stamp: 
    secs: 1479424217
    nsecs: 571911375
  frame_id: ''
steering_wheel_angle: 0.0157079640776
steering_wheel_angle_cmd: 0.0
steering_wheel_torque: 0.125
speed: 23.105556488
enabled: False
override: False
driver: False
fault_wdc: False
fault_bus1: False
fault_bus2: False
fault_calibration: False
fault_connector: True
---
header: 
  seq: 278828
  stamp: 
    secs: 1479424217
    nsecs: 591965133
  frame_id: ''
steering_wheel_angle: 0.0157079640776
steering_wheel_angle_cmd: 0.0
steering_wheel_torque: 0.1875
speed: 23.1027774811
enabled: False
override: False
driver: False
fault_wdc: False
fault_bus1: False
fault_bus2: False
fault_calibration: False
fault_connector: True
---
header: 
  seq: 278829
  stamp: 
    secs: 1479424217
    nsecs: 612007922
  frame_id: ''
steering_wheel_angle: 0.0139626339078
steering_wheel_angle_cmd: 0.0
steering_wheel_torque: 0.25
speed: 23.1083335876
enabled: False
override: False
driver: False
fault_wdc: False
fault_bus1: False
fault_bus2: False
fault_calibration: False
fault_connector: True
---
header: 
  seq: 278830
  stamp: 
    secs: 1479424217
    nsecs: 632020055
  frame_id: ''
steering_wheel_angle: 0.0139626339078
steering_wheel_angle_cmd: 0.0
steering_wheel_torque: 0.25
speed: 23.1111106873
enabled: False
override: False
driver: False
fault_wdc: False
fault_bus1: False
fault_bus2: False
fault_calibration: False
fault_connector: True
---
header: 
  seq: 278831
  stamp: 
    secs: 1479424217
    nsecs: 652055732
  frame_id: ''
steering_wheel_angle: 0.0139626339078
steering_wheel_angle_cmd: 0.0
steering_wheel_torque: 0.4375
speed: 23.1111106873
enabled: False
override: False
driver: False
fault_wdc: False
fault_bus1: False
fault_bus2: False
fault_calibration: False
fault_connector: True
---
header: 
  seq: 278832
  stamp: 
    secs: 1479424217
    nsecs: 672074251
  frame_id: ''
steering_wheel_angle: 0.0157079640776
steering_wheel_angle_cmd: 0.0
steering_wheel_torque: 0.375
speed: 23.1111106873
enabled: False
override: False
driver: False
fault_wdc: False
fault_bus1: False
fault_bus2: False
fault_calibration: False
fault_connector: True
---
header: 
  seq: 278833
  stamp: 
    secs: 1479424217
    nsecs: 692118240
  frame_id: ''
steering_wheel_angle: 0.0157079640776
steering_wheel_angle_cmd: 0.0
steering_wheel_torque: 0.4375
speed: 23.105556488
enabled: False
override: False
driver: False
fault_wdc: False
fault_bus1: False
fault_bus2: False
fault_calibration: False
fault_connector: True
---
header: 
  seq: 278834
  stamp: 
    secs: 1479424217
    nsecs: 712164214
  frame_id: ''
steering_wheel_angle: 0.0139626339078
steering_wheel_angle_cmd: 0.0
steering_wheel_torque: 0.375
speed: 23.105556488
enabled: False
override: False
driver: False
fault_wdc: False
fault_bus1: False
fault_bus2: False
fault_calibration: False
fault_connector: True
---
header: 
  seq: 278835
  stamp: 
    secs: 1479424217
    nsecs: 732227511
  frame_id: ''
steering_wheel_angle: 0.0139626339078
steering_wheel_angle_cmd: 0.0
steering_wheel_torque: 0.4375
speed: 23.1027774811
enabled: False
override: False
driver: False
fault_wdc: False
fault_bus1: False
fault_bus2: False
fault_calibration: False
fault_connector: True
---
header: 
  seq: 278836
  stamp: 
    secs: 1479424217
    nsecs: 752225213
  frame_id: ''
steering_wheel_angle: 0.0139626339078
steering_wheel_angle_cmd: 0.0
steering_wheel_torque: 0.375
speed: 23.1083335876
enabled: False
override: False
driver: False
fault_wdc: False
fault_bus1: False
fault_bus2: False
fault_calibration: False
fault_connector: True
---
header: 
  seq: 278837
  stamp: 
    secs: 1479424217
    nsecs: 772283138
  frame_id: ''
steering_wheel_angle: 0.0139626339078
steering_wheel_angle_cmd: 0.0
steering_wheel_torque: 0.3125
speed: 23.1000003815
enabled: False
override: False
driver: False
fault_wdc: False
fault_bus1: False
fault_bus2: False
fault_calibration: False
fault_connector: True
---
header: 
  seq: 278838
  stamp: 
    secs: 1479424217
    nsecs: 792284694
  frame_id: ''
steering_wheel_angle: 0.0139626339078
steering_wheel_angle_cmd: 0.0
steering_wheel_torque: 0.1875
speed: 23.0972213745
enabled: False
override: False
driver: False
fault_wdc: False
fault_bus1: False
fault_bus2: False
fault_calibration: False
fault_connector: True
---
header: 
  seq: 278839
  stamp: 
    secs: 1479424217
    nsecs: 812330330
  frame_id: ''
steering_wheel_angle: 0.0139626339078
steering_wheel_angle_cmd: 0.0
steering_wheel_torque: 0.625
speed: 23.1027774811
enabled: False
override: False
driver: False
fault_wdc: False
fault_bus1: False
fault_bus2: False
fault_calibration: False
fault_connector: True
---
header: 
  seq: 278840
  stamp: 
    secs: 1479424217
    nsecs: 832369519
  frame_id: ''
steering_wheel_angle: 0.0139626339078
steering_wheel_angle_cmd: 0.0
steering_wheel_torque: 0.5625
speed: 23.1027774811
enabled: False
override: False
driver: False
fault_wdc: False
fault_bus1: False
fault_bus2: False
fault_calibration: False
fault_connector: True
---
header: 
  seq: 278841
  stamp: 
    secs: 1479424217
    nsecs: 852408788
  frame_id: ''
steering_wheel_angle: 0.0139626339078
steering_wheel_angle_cmd: 0.0
steering_wheel_torque: 0.0625
speed: 23.1111106873
enabled: False
override: False
driver: False
fault_wdc: False
fault_bus1: False
fault_bus2: False
fault_calibration: False
fault_connector: True
---
header: 
  seq: 278842
  stamp: 
    secs: 1479424217
    nsecs: 872415816
  frame_id: ''
steering_wheel_angle: 0.0122173046693
steering_wheel_angle_cmd: 0.0
steering_wheel_torque: 0.4375
speed: 23.1111106873
enabled: False
override: False
driver: False
fault_wdc: False
fault_bus1: False
fault_bus2: False
fault_calibration: False
fault_connector: True
---
header: 
  seq: 278843
  stamp: 
    secs: 1479424217
    nsecs: 892471913
  frame_id: ''
steering_wheel_angle: 0.0122173046693
steering_wheel_angle_cmd: 0.0
steering_wheel_torque: 0.4375
speed: 23.1166667938
enabled: False
override: False
driver: False
fault_wdc: False
fault_bus1: False
fault_bus2: False
fault_calibration: False
fault_connector: True
---
header: 
  seq: 278844
  stamp: 
    secs: 1479424217
    nsecs: 912473175
  frame_id: ''
steering_wheel_angle: 0.0122173046693
steering_wheel_angle_cmd: 0.0
steering_wheel_torque: 0.0625
speed: 23.1194438934
enabled: False
override: False
driver: False
fault_wdc: False
fault_bus1: False
fault_bus2: False
fault_calibration: False
fault_connector: True
---
header: 
  seq: 278845
  stamp: 
    secs: 1479424217
    nsecs: 932514618
  frame_id: ''
steering_wheel_angle: 0.0104719754308
steering_wheel_angle_cmd: 0.0
steering_wheel_torque: 0.25
speed: 23.1305561066
enabled: False
override: False
driver: False
fault_wdc: False
fault_bus1: False
fault_bus2: False
fault_calibration: False
fault_connector: True
---
header: 
  seq: 278846
  stamp: 
    secs: 1479424217
    nsecs: 952614585
  frame_id: ''
steering_wheel_angle: 0.0104719754308
steering_wheel_angle_cmd: 0.0
steering_wheel_torque: 0.5
speed: 23.1277770996
enabled: False
override: False
driver: False
fault_wdc: False
fault_bus1: False
fault_bus2: False
fault_calibration: False
fault_connector: True
---
header: 
  seq: 278847
  stamp: 
    secs: 1479424217
    nsecs: 972617753
  frame_id: ''
steering_wheel_angle: 0.0104719754308
steering_wheel_angle_cmd: 0.0
steering_wheel_torque: 0.4375
speed: 23.125
enabled: False
override: False
driver: False
fault_wdc: False
fault_bus1: False
fault_bus2: False
fault_calibration: False
fault_connector: True
---
header: 
  seq: 278848
  stamp: 
    secs: 1479424217
    nsecs: 992661007
  frame_id: ''
steering_wheel_angle: 0.0122173046693
steering_wheel_angle_cmd: 0.0
steering_wheel_torque: 0.5
speed: 23.1194438934
enabled: False
override: False
driver: False
fault_wdc: False
fault_bus1: False
fault_bus2: False
fault_calibration: False
fault_connector: True
---
header: 
  seq: 278849
  stamp: 
    secs: 1479424218
    nsecs: 012686851
  frame_id: ''
steering_wheel_angle: 0.0122173046693
steering_wheel_angle_cmd: 0.0
steering_wheel_torque: 0.4375
speed: 23.1138896942
enabled: False
override: False
driver: False
fault_wdc: False
fault_bus1: False
fault_bus2: False
fault_calibration: False
fault_connector: True
---
header: 
  seq: 278850
  stamp: 
    secs: 1479424218
    nsecs: 032711015
  frame_id: ''
steering_wheel_angle: 0.0122173046693
steering_wheel_angle_cmd: 0.0
steering_wheel_torque: 0.375
speed: 23.105556488
enabled: False
override: False
driver: False
fault_wdc: False
fault_bus1: False
fault_bus2: False
fault_calibration: False
fault_connector: True
---
header: 
  seq: 278851
  stamp: 
    secs: 1479424218
    nsecs: 052752610
  frame_id: ''
steering_wheel_angle: 0.0104719754308
steering_wheel_angle_cmd: 0.0
steering_wheel_torque: 0.1875
speed: 23.0972213745
enabled: False
override: False
driver: False
fault_wdc: False
fault_bus1: False
fault_bus2: False
fault_calibration: False
fault_connector: True
---
header: 
  seq: 278852
  stamp: 
    secs: 1479424218
    nsecs: 072803458
  frame_id: ''
steering_wheel_angle: 0.0104719754308
steering_wheel_angle_cmd: 0.0
steering_wheel_torque: 0.125
speed: 23.0916671753
enabled: False
override: False
driver: False
fault_wdc: False
fault_bus1: False
fault_bus2: False
fault_calibration: False
fault_connector: True
---
header: 
  seq: 278853
  stamp: 
    secs: 1479424218
    nsecs: 093008853
  frame_id: ''
steering_wheel_angle: 0.00872664619237
steering_wheel_angle_cmd: 0.0
steering_wheel_torque: -0.125
speed: 23.0777778625
enabled: False
override: False
driver: False
fault_wdc: False
fault_bus1: False
fault_bus2: False
fault_calibration: False
fault_connector: True
---
header: 
  seq: 278854
  stamp: 
    secs: 1479424218
    nsecs: 113035543
  frame_id: ''
steering_wheel_angle: 0.00872664619237
steering_wheel_angle_cmd: 0.0
steering_wheel_torque: 0.25
speed: 23.0833339691
enabled: False
override: False
driver: False
fault_wdc: False
fault_bus1: False
fault_bus2: False
fault_calibration: False
fault_connector: True
---
header: 
  seq: 278855
  stamp: 
    secs: 1479424218
    nsecs: 133008699
  frame_id: ''
steering_wheel_angle: 0.00872664619237
steering_wheel_angle_cmd: 0.0
steering_wheel_torque: 0.25
speed: 23.0750007629
enabled: False
override: False
driver: False
fault_wdc: False
fault_bus1: False
fault_bus2: False
