secs: 1475186965.539
steering_wheel_angle: -0.0471238903701
---
secs: 1475186965.559
steering_wheel_angle: -0.045378562063
---
secs: 1475186965.579
steering_wheel_angle: -0.045378562063
---
secs: 1475186965.599
steering_wheel_angle: -0.045378562063
---
secs: 1475186965.619
steering_wheel_angle: -0.0471238903701
---
secs: 1475186965.639
steering_wheel_angle: -0.0471238903701
---
secs: 1475186965.659
steering_wheel_angle: -0.0471238903701
---
secs: 1475186965.679
steering_wheel_angle: -0.045378562063
---
secs: 1475186965.699
steering_wheel_angle: -0.0436332300305
---
secs: 1475186965.719
steering_wheel_angle: -0.0436332300305
---
secs: 1475186965.739
steering_wheel_angle: -0.0418879017234
---
secs: 1475186965.759
steering_wheel_angle: -0.0401425734162
---
secs: 1475186965.779
steering_wheel_angle: -0.0401425734162
---
secs: 1475186965.799
steering_wheel_angle: -0.0366519130766
---
secs: 1475186965.819
steering_wheel_angle: -0.0366519130766
---
secs: 1475186965.839
steering_wheel_angle: -0.0366519130766
---
secs: 1475186965.859
steering_wheel_angle: -0.0349065847695
---
secs: 1475186965.879
steering_wheel_angle: -0.0349065847695
---
secs: 1475186965.899
steering_wheel_angle: -0.0349065847695
---
secs: 1475186965.919
steering_wheel_angle: -0.0349065847695
---
secs: 1475186965.939
steering_wheel_angle: -0.0349065847695
---
secs: 1475186965.959
steering_wheel_angle: -0.0314159281552
---
secs: 1475186965.979
steering_wheel_angle: -0.0296705979854
---
secs: 1475186965.999
steering_wheel_angle: -0.0261799395084
---
secs: 1475186966.198
steering_wheel_angle: -0.0261799395084
---
secs: 1475186966.399
steering_wheel_angle: -0.0261799395084
---
secs: 1475186966.599
steering_wheel_angle: -0.0261799395084
---
secs: 1475186966.799
steering_wheel_angle: -0.0244346093386
---
secs: 1475186966.100
steering_wheel_angle: -0.0226892810315
---
secs: 1475186966.120
steering_wheel_angle: -0.0209439508617
---
secs: 1475186966.140
steering_wheel_angle: -0.0209439508617
---
secs: 1475186966.160
steering_wheel_angle: -0.0191986225545
---
secs: 1475186966.180
steering_wheel_angle: -0.0157079640776
---
secs: 1475186966.200
steering_wheel_angle: -0.0122173046693
---
secs: 1475186966.220
steering_wheel_angle: -0.0104719754308
---
secs: 1475186966.240
steering_wheel_angle: -0.0069813169539
---
secs: 1475186966.260
steering_wheel_angle: -0.00523598771542
---
secs: 1475186966.280
steering_wheel_angle: -0.00523598771542
---
secs: 1475186966.300
steering_wheel_angle: -0.00523598771542
---
secs: 1475186966.320
steering_wheel_angle: -0.00523598771542
---
secs: 1475186966.340
steering_wheel_angle: -0.00523598771542
---
secs: 1475186966.360
steering_wheel_angle: -0.00523598771542
---
secs: 1475186966.380
steering_wheel_angle: -0.00523598771542
---
secs: 1475186966.400
steering_wheel_angle: -0.00523598771542
---
secs: 1475186966.420
steering_wheel_angle: -0.00523598771542
---
secs: 1475186966.440
steering_wheel_angle: -0.00523598771542
---
secs: 1475186966.460
steering_wheel_angle: -0.00523598771542
---
secs: 1475186966.480
steering_wheel_angle: -0.00523598771542
---
secs: 1475186966.500
steering_wheel_angle: -0.00523598771542
---
secs: 1475186966.520
steering_wheel_angle: -0.0069813169539
---
secs: 1475186966.540
steering_wheel_angle: -0.0104719754308
---
secs: 1475186966.560
steering_wheel_angle: -0.0122173046693
---
secs: 1475186966.580
steering_wheel_angle: -0.0122173046693
---
secs: 1475186966.600
steering_wheel_angle: -0.0122173046693
---
secs: 1475186966.620
steering_wheel_angle: -0.0139626339078
---
secs: 1475186966.640
steering_wheel_angle: -0.0139626339078
---
secs: 1475186966.660
steering_wheel_angle: -0.0139626339078
---
secs: 1475186966.680
steering_wheel_angle: -0.0139626339078
---
secs: 1475186966.700
steering_wheel_angle: -0.0139626339078
---
secs: 1475186966.721
steering_wheel_angle: -0.0157079640776
---
secs: 1475186966.741
steering_wheel_angle: -0.0157079640776
---
secs: 1475186966.761
steering_wheel_angle: -0.0157079640776
---
secs: 1475186966.781
steering_wheel_angle: -0.0157079640776
---
secs: 1475186966.801
steering_wheel_angle: -0.0157079640776
---
secs: 1475186966.821
steering_wheel_angle: -0.0157079640776
---
secs: 1475186966.841
steering_wheel_angle: -0.0174532923847
---
secs: 1475186966.861
steering_wheel_angle: -0.0174532923847
---
secs: 1475186966.881
steering_wheel_angle: -0.0174532923847
---
secs: 1475186966.901
steering_wheel_angle: -0.0174532923847
---
secs: 1475186966.921
steering_wheel_angle: -0.0191986225545
---
secs: 1475186966.941
steering_wheel_angle: -0.0191986225545
---
secs: 1475186966.961
steering_wheel_angle: -0.0191986225545
---
secs: 1475186966.981
steering_wheel_angle: -0.0191986225545
---
secs: 1475186967.150
steering_wheel_angle: -0.0209439508617
---
secs: 1475186967.215
steering_wheel_angle: -0.0209439508617
---
secs: 1475186967.415
steering_wheel_angle: -0.0226892810315
---
secs: 1475186967.618
steering_wheel_angle: -0.0244346093386
---
secs: 1475186967.816
steering_wheel_angle: -0.0244346093386
---
secs: 1475186967.101
steering_wheel_angle: -0.0261799395084
---
secs: 1475186967.121
steering_wheel_angle: -0.0261799395084
---
secs: 1475186967.141
steering_wheel_angle: -0.0261799395084
---
secs: 1475186967.161
steering_wheel_angle: -0.0261799395084
---
secs: 1475186967.181
steering_wheel_angle: -0.0261799395084
---
secs: 1475186967.201
steering_wheel_angle: -0.0261799395084
---
secs: 1475186967.221
steering_wheel_angle: -0.0261799395084
---
secs: 1475186967.241
steering_wheel_angle: -0.0261799395084
---
secs: 1475186967.262
steering_wheel_angle: -0.0261799395084
---
secs: 1475186967.281
steering_wheel_angle: -0.0261799395084
---
secs: 1475186967.301
steering_wheel_angle: -0.0261799395084
---
secs: 1475186967.322
steering_wheel_angle: -0.0261799395084
---
secs: 1475186967.342
steering_wheel_angle: -0.0261799395084
---
secs: 1475186967.362
steering_wheel_angle: -0.0261799395084
---
secs: 1475186967.382
steering_wheel_angle: -0.0261799395084
---
secs: 1475186967.402
steering_wheel_angle: -0.0261799395084
---
secs: 1475186967.422
steering_wheel_angle: -0.0261799395084
---
secs: 1475186967.442
steering_wheel_angle: -0.0261799395084
---
secs: 1475186967.462
steering_wheel_angle: -0.0261799395084
---
secs: 1475186967.482
steering_wheel_angle: -0.0261799395084
---
secs: 1475186967.502
steering_wheel_angle: -0.0261799395084
---
secs: 1475186967.522
steering_wheel_angle: -0.0261799395084
---
secs: 1475186967.542
steering_wheel_angle: -0.0244346093386
---
secs: 1475186967.563
steering_wheel_angle: -0.0244346093386
---
secs: 1475186967.582
steering_wheel_angle: -0.0226892810315
---
secs: 1475186967.602
steering_wheel_angle: -0.0209439508617
---
secs: 1475186967.622
steering_wheel_angle: -0.0209439508617
---
secs: 1475186967.642
steering_wheel_angle: -0.0209439508617
---
secs: 1475186967.662
steering_wheel_angle: -0.0209439508617
---
secs: 1475186967.682
steering_wheel_angle: -0.0209439508617
---
secs: 1475186967.702
steering_wheel_angle: -0.0209439508617
---
secs: 1475186967.722
steering_wheel_angle: -0.0209439508617
---
secs: 1475186967.742
steering_wheel_angle: -0.0209439508617
---
secs: 1475186967.763
steering_wheel_angle: -0.0209439508617
---
secs: 1475186967.782
steering_wheel_angle: -0.0209439508617
---
secs: 1475186967.802
steering_wheel_angle: -0.0191986225545
---
secs: 1475186967.822
steering_wheel_angle: -0.0191986225545
---
secs: 1475186967.842
steering_wheel_angle: -0.0191986225545
---
secs: 1475186967.863
steering_wheel_angle: -0.0209439508617
---
secs: 1475186967.882
steering_wheel_angle: -0.0209439508617
---
secs: 1475186967.902
steering_wheel_angle: -0.0209439508617
---
secs: 1475186967.923
steering_wheel_angle: -0.0226892810315
---
secs: 1475186967.943
steering_wheel_angle: -0.0244346093386
---
secs: 1475186967.963
steering_wheel_angle: -0.0261799395084
---
secs: 1475186967.983
steering_wheel_angle: -0.0279252678156
---
secs: 1475186968.320
steering_wheel_angle: -0.0279252678156
---
secs: 1475186968.232
steering_wheel_angle: -0.0296705979854
---
secs: 1475186968.433
steering_wheel_angle: -0.0296705979854
---
secs: 1475186968.633
steering_wheel_angle: -0.0314159281552
---
secs: 1475186968.834
steering_wheel_angle: -0.0314159281552
---
secs: 1475186968.103
steering_wheel_angle: -0.0331612564623
---
secs: 1475186968.123
steering_wheel_angle: -0.0349065847695
---
secs: 1475186968.143
steering_wheel_angle: -0.0349065847695
---
secs: 1475186968.163
steering_wheel_angle: -0.0349065847695
---
secs: 1475186968.183
steering_wheel_angle: -0.0349065847695
---
secs: 1475186968.203
steering_wheel_angle: -0.0349065847695
---
secs: 1475186968.223
steering_wheel_angle: -0.0349065847695
---
secs: 1475186968.243
steering_wheel_angle: -0.0349065847695
---
secs: 1475186968.263
steering_wheel_angle: -0.0349065847695
---
secs: 1475186968.283
steering_wheel_angle: -0.0366519130766
---
secs: 1475186968.303
steering_wheel_angle: -0.0366519130766
---
secs: 1475186968.323
steering_wheel_angle: -0.0401425734162
---
secs: 1475186968.343
steering_wheel_angle: -0.0401425734162
---
secs: 1475186968.363
steering_wheel_angle: -0.0401425734162
---
secs: 1475186968.383
steering_wheel_angle: -0.0401425734162
---
secs: 1475186968.403
steering_wheel_angle: -0.0401425734162
---
secs: 1475186968.423
steering_wheel_angle: -0.0383972451091
---
secs: 1475186968.443
steering_wheel_angle: -0.0366519130766
---
secs: 1475186968.464
steering_wheel_angle: -0.0366519130766
---
secs: 1475186968.483
steering_wheel_angle: -0.0366519130766
---
secs: 1475186968.503
steering_wheel_angle: -0.0366519130766
---
secs: 1475186968.523
steering_wheel_angle: -0.0366519130766
---
secs: 1475186968.544
steering_wheel_angle: -0.0366519130766
---
secs: 1475186968.564
steering_wheel_angle: -0.0366519130766
---
secs: 1475186968.584
steering_wheel_angle: -0.0366519130766
---
secs: 1475186968.604
steering_wheel_angle: -0.0349065847695
---
secs: 1475186968.624
steering_wheel_angle: -0.0331612564623
---
secs: 1475186968.644
steering_wheel_angle: -0.0331612564623
---
secs: 1475186968.664
steering_wheel_angle: -0.0314159281552
---
secs: 1475186968.684
steering_wheel_angle: -0.0314159281552
---
secs: 1475186968.704
steering_wheel_angle: -0.0296705979854
---
secs: 1475186968.724
steering_wheel_angle: -0.0279252678156
---
secs: 1475186968.744
steering_wheel_angle: -0.0261799395084
---
secs: 1475186968.764
steering_wheel_angle: -0.0244346093386
---
secs: 1475186968.784
steering_wheel_angle: -0.0244346093386
---
secs: 1475186968.804
steering_wheel_angle: -0.0226892810315
---
secs: 1475186968.824
steering_wheel_angle: -0.0226892810315
---
secs: 1475186968.844
steering_wheel_angle: -0.0209439508617
---
secs: 1475186968.864
steering_wheel_angle: -0.0209439508617
---
secs: 1475186968.884
steering_wheel_angle: -0.0191986225545
---
secs: 1475186968.904
steering_wheel_angle: -0.0191986225545
---
secs: 1475186968.924
steering_wheel_angle: -0.0157079640776
---
secs: 1475186968.944
steering_wheel_angle: -0.0122173046693
---
secs: 1475186968.964
steering_wheel_angle: -0.00872664619237
---
secs: 1475186968.984
steering_wheel_angle: -0.0069813169539
---
secs: 1475186969.484
steering_wheel_angle: -0.00523598771542
---
secs: 1475186969.248
steering_wheel_angle: -0.00349065847695
---
secs: 1475186969.448
steering_wheel_angle: -0.00349065847695
---
secs: 1475186969.649
steering_wheel_angle: -0.00174532923847
---
secs: 1475186969.849
steering_wheel_angle: 0.0
---
secs: 1475186969.104
steering_wheel_angle: 0.00174532923847
---
secs: 1475186969.125
steering_wheel_angle: 0.00174532923847
---
secs: 1475186969.145
steering_wheel_angle: 0.00523598771542
---
secs: 1475186969.165
steering_wheel_angle: 0.00523598771542
---
secs: 1475186969.185
steering_wheel_angle: 0.0069813169539
---
secs: 1475186969.205
steering_wheel_angle: 0.0069813169539
---
secs: 1475186969.225
steering_wheel_angle: 0.0069813169539
---
secs: 1475186969.245
steering_wheel_angle: 0.0069813169539
---
secs: 1475186969.265
steering_wheel_angle: 0.0069813169539
---
secs: 1475186969.285
steering_wheel_angle: 0.0069813169539
---
secs: 1475186969.305
steering_wheel_angle: 0.0069813169539
---
secs: 1475186969.325
steering_wheel_angle: 0.00872664619237
---
secs: 1475186969.345
steering_wheel_angle: 0.00872664619237
---
secs: 1475186969.365
steering_wheel_angle: 0.00872664619237
---
secs: 1475186969.385
steering_wheel_angle: 0.00872664619237
---
secs: 1475186969.405
steering_wheel_angle: 0.00872664619237
---
secs: 1475186969.425
steering_wheel_angle: 0.00872664619237
---
secs: 1475186969.445
steering_wheel_angle: 0.00872664619237
---
secs: 1475186969.465
steering_wheel_angle: 0.00872664619237
---
secs: 1475186969.485
steering_wheel_angle: 0.00872664619237
---
secs: 1475186969.505
steering_wheel_angle: 0.00872664619237
---
secs: 1475186969.525
steering_wheel_angle: 0.00872664619237
---
secs: 1475186969.545
steering_wheel_angle: 0.00872664619237
---
secs: 1475186969.565
steering_wheel_angle: 0.00872664619237
---
secs: 1475186969.586
steering_wheel_angle: 0.00872664619237
---
secs: 1475186969.605
steering_wheel_angle: 0.00872664619237
---
secs: 1475186969.625
steering_wheel_angle: 0.00872664619237
---
secs: 1475186969.645
steering_wheel_angle: 0.00872664619237
---
secs: 1475186969.665
steering_wheel_angle: 0.0104719754308
---
secs: 1475186969.685
steering_wheel_angle: 0.0122173046693
---
secs: 1475186969.705
steering_wheel_angle: 0.0122173046693
---
secs: 1475186969.726
steering_wheel_angle: 0.0139626339078
---
secs: 1475186969.746
steering_wheel_angle: 0.0157079640776
---
secs: 1475186969.766
steering_wheel_angle: 0.0157079640776
---
secs: 1475186969.786
steering_wheel_angle: 0.0157079640776
---
secs: 1475186969.806
steering_wheel_angle: 0.0157079640776
---
secs: 1475186969.826
steering_wheel_angle: 0.0157079640776
---
secs: 1475186969.846
steering_wheel_angle: 0.0174532923847
---
secs: 1475186969.866
steering_wheel_angle: 0.0174532923847
---
secs: 1475186969.886
steering_wheel_angle: 0.0174532923847
---
secs: 1475186969.906
steering_wheel_angle: 0.0174532923847
---
secs: 1475186969.926
steering_wheel_angle: 0.0174532923847
---
secs: 1475186969.946
steering_wheel_angle: 0.0174532923847
---
secs: 1475186969.966
steering_wheel_angle: 0.0174532923847
---
secs: 1475186969.986
steering_wheel_angle: 0.0174532923847
---
secs: 1475186970.646
steering_wheel_angle: 0.0174532923847
---
secs: 1475186970.265
steering_wheel_angle: 0.0174532923847
---
secs: 1475186970.465
steering_wheel_angle: 0.0174532923847
---
secs: 1475186970.666
steering_wheel_angle: 0.0157079640776
---
secs: 1475186970.866
steering_wheel_angle: 0.0157079640776
---
secs: 1475186970.106
steering_wheel_angle: 0.0139626339078
---
secs: 1475186970.126
steering_wheel_angle: 0.0139626339078
---
secs: 1475186970.146
steering_wheel_angle: 0.0139626339078
---
secs: 1475186970.166
steering_wheel_angle: 0.0139626339078
---
secs: 1475186970.186
steering_wheel_angle: 0.0139626339078
---
secs: 1475186970.206
steering_wheel_angle: 0.0139626339078
---
secs: 1475186970.226
steering_wheel_angle: 0.0139626339078
---
secs: 1475186970.246
steering_wheel_angle: 0.0139626339078
---
secs: 1475186970.266
steering_wheel_angle: 0.0139626339078
---
secs: 1475186970.286
steering_wheel_angle: 0.0139626339078
---
secs: 1475186970.307
steering_wheel_angle: 0.0139626339078
---
secs: 1475186970.327
steering_wheel_angle: 0.0139626339078
---
secs: 1475186970.347
steering_wheel_angle: 0.0122173046693
---
secs: 1475186970.367
steering_wheel_angle: 0.0122173046693
---
secs: 1475186970.387
steering_wheel_angle: 0.0122173046693
---
secs: 1475186970.407
steering_wheel_angle: 0.0122173046693
---
secs: 1475186970.427
steering_wheel_angle: 0.0122173046693
---
secs: 1475186970.447
steering_wheel_angle: 0.0122173046693
---
secs: 1475186970.467
steering_wheel_angle: 0.0122173046693
---
secs: 1475186970.487
steering_wheel_angle: 0.0122173046693
---
secs: 1475186970.507
steering_wheel_angle: 0.0122173046693
---
secs: 1475186970.527
steering_wheel_angle: 0.0122173046693
---
secs: 1475186970.547
steering_wheel_angle: 0.0122173046693
---
secs: 1475186970.567
steering_wheel_angle: 0.0122173046693
---
secs: 1475186970.587
steering_wheel_angle: 0.0139626339078
---
secs: 1475186970.607
steering_wheel_angle: 0.0139626339078
---
secs: 1475186970.627
steering_wheel_angle: 0.0139626339078
---
secs: 1475186970.647
steering_wheel_angle: 0.0139626339078
---
secs: 1475186970.667
steering_wheel_angle: 0.0139626339078
---
secs: 1475186970.687
steering_wheel_angle: 0.0157079640776
---
secs: 1475186970.708
steering_wheel_angle: 0.0157079640776
---
secs: 1475186970.727
steering_wheel_angle: 0.0174532923847
---
secs: 1475186970.747
steering_wheel_angle: 0.0174532923847
---
secs: 1475186970.767
steering_wheel_angle: 0.0174532923847
---
secs: 1475186970.787
steering_wheel_angle: 0.0191986225545
---
secs: 1475186970.807
steering_wheel_angle: 0.0191986225545
---
secs: 1475186970.828
steering_wheel_angle: 0.0191986225545
---
secs: 1475186970.847
steering_wheel_angle: 0.0191986225545
---
secs: 1475186970.867
steering_wheel_angle: 0.0209439508617
---
secs: 1475186970.887
steering_wheel_angle: 0.0209439508617
---
secs: 1475186970.907
steering_wheel_angle: 0.0226892810315
---
secs: 1475186970.928
steering_wheel_angle: 0.0244346093386
---
secs: 1475186970.948
steering_wheel_angle: 0.0261799395084
---
secs: 1475186970.968
steering_wheel_angle: 0.0279252678156
---
secs: 1475186970.988
steering_wheel_angle: 0.0279252678156
---
secs: 1475186971.809
steering_wheel_angle: 0.0279252678156
---
secs: 1475186971.282
steering_wheel_angle: 0.0279252678156
---
secs: 1475186971.482
steering_wheel_angle: 0.0279252678156
---
secs: 1475186971.682
steering_wheel_angle: 0.0261799395084
---
secs: 1475186971.882
steering_wheel_angle: 0.0261799395084
---
secs: 1475186971.108
steering_wheel_angle: 0.0279252678156
---
secs: 1475186971.128
steering_wheel_angle: 0.0279252678156
---
secs: 1475186971.148
steering_wheel_angle: 0.0296705979854
---
secs: 1475186971.168
steering_wheel_angle: 0.0296705979854
---
secs: 1475186971.188
steering_wheel_angle: 0.0296705979854
---
secs: 1475186971.208
steering_wheel_angle: 0.0296705979854
---
secs: 1475186971.228
steering_wheel_angle: 0.0296705979854
---
secs: 1475186971.248
steering_wheel_angle: 0.0296705979854
---
secs: 1475186971.268
steering_wheel_angle: 0.0296705979854
---
secs: 1475186971.288
steering_wheel_angle: 0.0296705979854
---
secs: 1475186971.308
steering_wheel_angle: 0.0296705979854
---
secs: 1475186971.328
steering_wheel_angle: 0.0296705979854
---
secs: 1475186971.348
steering_wheel_angle: 0.0279252678156
---
secs: 1475186971.368
steering_wheel_angle: 0.0279252678156
---
secs: 1475186971.388
steering_wheel_angle: 0.0279252678156
---
secs: 1475186971.408
steering_wheel_angle: 0.0279252678156
---
secs: 1475186971.428
steering_wheel_angle: 0.0279252678156
---
secs: 1475186971.448
steering_wheel_angle: 0.0261799395084
---
secs: 1475186971.468
steering_wheel_angle: 0.0261799395084
---
secs: 1475186971.488
steering_wheel_angle: 0.0244346093386
---
secs: 1475186971.508
steering_wheel_angle: 0.0244346093386
---
secs: 1475186971.529
steering_wheel_angle: 0.0244346093386
---
secs: 1475186971.549
steering_wheel_angle: 0.0244346093386
---
secs: 1475186971.569
steering_wheel_angle: 0.0244346093386
---
secs: 1475186971.589
steering_wheel_angle: 0.0244346093386
---
secs: 1475186971.609
steering_wheel_angle: 0.0244346093386
---
secs: 1475186971.629
steering_wheel_angle: 0.0244346093386
---
secs: 1475186971.649
steering_wheel_angle: 0.0226892810315
---
secs: 1475186971.669
steering_wheel_angle: 0.0226892810315
---
secs: 1475186971.689
steering_wheel_angle: 0.0226892810315
---
secs: 1475186971.709
steering_wheel_angle: 0.0226892810315
---
secs: 1475186971.729
steering_wheel_angle: 0.0226892810315
---
secs: 1475186971.749
steering_wheel_angle: 0.0226892810315
---
secs: 1475186971.769
steering_wheel_angle: 0.0226892810315
---
secs: 1475186971.789
steering_wheel_angle: 0.0226892810315
---
secs: 1475186971.809
steering_wheel_angle: 0.0226892810315
---
secs: 1475186971.829
steering_wheel_angle: 0.0226892810315
---
secs: 1475186971.849
steering_wheel_angle: 0.0226892810315
---
secs: 1475186971.869
steering_wheel_angle: 0.0226892810315
---
secs: 1475186971.889
steering_wheel_angle: 0.0226892810315
---
secs: 1475186971.909
steering_wheel_angle: 0.0226892810315
---
secs: 1475186971.929
steering_wheel_angle: 0.0244346093386
---
secs: 1475186971.949
steering_wheel_angle: 0.0244346093386
---
secs: 1475186971.969
steering_wheel_angle: 0.0244346093386
---
secs: 1475186971.989
steering_wheel_angle: 0.0226892810315
---
secs: 1475186972.976
steering_wheel_angle: 0.0226892810315
---
secs: 1475186972.298
steering_wheel_angle: 0.0226892810315
---
secs: 1475186972.498
steering_wheel_angle: 0.0226892810315
---
secs: 1475186972.698
steering_wheel_angle: 0.0226892810315
---
secs: 1475186972.899
steering_wheel_angle: 0.0226892810315
---
secs: 1475186972.109
steering_wheel_angle: 0.0226892810315
---
secs: 1475186972.129
steering_wheel_angle: 0.0226892810315
---
secs: 1475186972.150
steering_wheel_angle: 0.0226892810315
---
secs: 1475186972.170
steering_wheel_angle: 0.0226892810315
---
secs: 1475186972.190
steering_wheel_angle: 0.0226892810315
---
secs: 1475186972.210
steering_wheel_angle: 0.0226892810315
---
secs: 1475186972.230
steering_wheel_angle: 0.0226892810315
---
secs: 1475186972.250
steering_wheel_angle: 0.0226892810315
---
secs: 1475186972.270
steering_wheel_angle: 0.0226892810315
---
secs: 1475186972.290
steering_wheel_angle: 0.0226892810315
---
secs: 1475186972.310
steering_wheel_angle: 0.0226892810315
---
secs: 1475186972.330
steering_wheel_angle: 0.0226892810315
---
secs: 1475186972.350
steering_wheel_angle: 0.0226892810315
---
secs: 1475186972.370
steering_wheel_angle: 0.0226892810315
---
secs: 1475186972.390
steering_wheel_angle: 0.0226892810315
---
secs: 1475186972.410
steering_wheel_angle: 0.0226892810315
---
secs: 1475186972.430
steering_wheel_angle: 0.0226892810315
---
secs: 1475186972.450
steering_wheel_angle: 0.0226892810315
---
secs: 1475186972.470
steering_wheel_angle: 0.0226892810315
---
secs: 1475186972.490
steering_wheel_angle: 0.0226892810315
---
secs: 1475186972.510
steering_wheel_angle: 0.0226892810315
---
secs: 1475186972.530
steering_wheel_angle: 0.0226892810315
---
secs: 1475186972.550
steering_wheel_angle: 0.0226892810315
---
secs: 1475186972.570
steering_wheel_angle: 0.0226892810315
---
secs: 1475186972.590
steering_wheel_angle: 0.0226892810315
---
secs: 1475186972.610
steering_wheel_angle: 0.0226892810315
---
secs: 1475186972.630
steering_wheel_angle: 0.0244346093386
---
secs: 1475186972.650
steering_wheel_angle: 0.0244346093386
---
secs: 1475186972.670
steering_wheel_angle: 0.0244346093386
---
secs: 1475186972.690
steering_wheel_angle: 0.0226892810315
---
secs: 1475186972.710
steering_wheel_angle: 0.0226892810315
---
secs: 1475186972.731
steering_wheel_angle: 0.0226892810315
---
secs: 1475186972.750
steering_wheel_angle: 0.0226892810315
---
secs: 1475186972.771
steering_wheel_angle: 0.0226892810315
---
secs: 1475186972.791
steering_wheel_angle: 0.0226892810315
---
secs: 1475186972.811
steering_wheel_angle: 0.0244346093386
---
secs: 1475186972.831
steering_wheel_angle: 0.0244346093386
---
secs: 1475186972.851
steering_wheel_angle: 0.0244346093386
---
secs: 1475186972.871
steering_wheel_angle: 0.0244346093386
---
secs: 1475186972.891
steering_wheel_angle: 0.0244346093386
---
secs: 1475186972.911
steering_wheel_angle: 0.0226892810315
---
secs: 1475186972.931
steering_wheel_angle: 0.0226892810315
---
secs: 1475186972.951
steering_wheel_angle: 0.0244346093386
---
secs: 1475186972.971
steering_wheel_angle: 0.0244346093386
---
secs: 1475186972.991
steering_wheel_angle: 0.0244346093386
---
secs: 1475186973.114
steering_wheel_angle: 0.0261799395084
---
secs: 1475186973.315
steering_wheel_angle: 0.0261799395084
---
secs: 1475186973.515
steering_wheel_angle: 0.0244346093386
---
secs: 1475186973.715
steering_wheel_angle: 0.0244346093386
---
secs: 1475186973.915
steering_wheel_angle: 0.0244346093386
---
secs: 1475186973.111
steering_wheel_angle: 0.0244346093386
---
secs: 1475186973.131
steering_wheel_angle: 0.0244346093386
---
secs: 1475186973.151
steering_wheel_angle: 0.0244346093386
---
secs: 1475186973.171
steering_wheel_angle: 0.0244346093386
---
secs: 1475186973.191
steering_wheel_angle: 0.0244346093386
---
secs: 1475186973.211
steering_wheel_angle: 0.0244346093386
---
secs: 1475186973.231
steering_wheel_angle: 0.0244346093386
---
secs: 1475186973.251
steering_wheel_angle: 0.0244346093386
---
secs: 1475186973.271
steering_wheel_angle: 0.0226892810315
---
secs: 1475186973.291
steering_wheel_angle: 0.0226892810315
---
secs: 1475186973.311
steering_wheel_angle: 0.0209439508617
---
secs: 1475186973.331
steering_wheel_angle: 0.0209439508617
---
secs: 1475186973.352
steering_wheel_angle: 0.0209439508617
---
secs: 1475186973.372
steering_wheel_angle: 0.0209439508617
---
secs: 1475186973.392
steering_wheel_angle: 0.0209439508617
---
secs: 1475186973.412
steering_wheel_angle: 0.0209439508617
---
secs: 1475186973.432
steering_wheel_angle: 0.0209439508617
---
secs: 1475186973.452
steering_wheel_angle: 0.0209439508617
---
secs: 1475186973.472
steering_wheel_angle: 0.0209439508617
---
secs: 1475186973.492
steering_wheel_angle: 0.0209439508617
---
secs: 1475186973.512
steering_wheel_angle: 0.0209439508617
---
secs: 1475186973.532
steering_wheel_angle: 0.0209439508617
---
secs: 1475186973.552
steering_wheel_angle: 0.0209439508617
---
secs: 1475186973.572
steering_wheel_angle: 0.0209439508617
---
secs: 1475186973.592
steering_wheel_angle: 0.0209439508617
---
secs: 1475186973.612
steering_wheel_angle: 0.0209439508617
---
secs: 1475186973.632
steering_wheel_angle: 0.0209439508617
---
secs: 1475186973.652
steering_wheel_angle: 0.0209439508617
---
secs: 1475186973.672
steering_wheel_angle: 0.0209439508617
---
secs: 1475186973.692
steering_wheel_angle: 0.0209439508617
---
secs: 1475186973.712
steering_wheel_angle: 0.0209439508617
---
secs: 1475186973.732
steering_wheel_angle: 0.0209439508617
---
secs: 1475186973.752
steering_wheel_angle: 0.0209439508617
---
secs: 1475186973.772
steering_wheel_angle: 0.0209439508617
---
secs: 1475186973.792
steering_wheel_angle: 0.0209439508617
---
secs: 1475186973.812
steering_wheel_angle: 0.0209439508617
---
secs: 1475186973.832
steering_wheel_angle: 0.0209439508617
---
secs: 1475186973.852
steering_wheel_angle: 0.0209439508617
---
secs: 1475186973.872
steering_wheel_angle: 0.0209439508617
---
secs: 1475186973.892
steering_wheel_angle: 0.0209439508617
---
secs: 1475186973.912
steering_wheel_angle: 0.0209439508617
---
secs: 1475186973.932
steering_wheel_angle: 0.0209439508617
---
secs: 1475186973.953
steering_wheel_angle: 0.0209439508617
---
secs: 1475186973.973
steering_wheel_angle: 0.0209439508617
---
secs: 1475186973.993
steering_wheel_angle: 0.0209439508617
---
secs: 1475186974.131
steering_wheel_angle: 0.0209439508617
---
secs: 1475186974.331
steering_wheel_angle: 0.0209439508617
---
secs: 1475186974.533
steering_wheel_angle: 0.0226892810315
---
secs: 1475186974.731
steering_wheel_angle: 0.0226892810315
---
secs: 1475186974.932
steering_wheel_angle: 0.0226892810315
---
secs: 1475186974.113
steering_wheel_angle: 0.0226892810315
---
secs: 1475186974.133
steering_wheel_angle: 0.0226892810315
---
secs: 1475186974.153
steering_wheel_angle: 0.0226892810315
---
secs: 1475186974.173
steering_wheel_angle: 0.0226892810315
---
secs: 1475186974.193
steering_wheel_angle: 0.0226892810315
---
secs: 1475186974.213
steering_wheel_angle: 0.0226892810315
---
secs: 1475186974.233
steering_wheel_angle: 0.0226892810315
---
secs: 1475186974.253
steering_wheel_angle: 0.0226892810315
---
secs: 1475186974.273
steering_wheel_angle: 0.0226892810315
---
secs: 1475186974.293
steering_wheel_angle: 0.0226892810315
---
secs: 1475186974.313
steering_wheel_angle: 0.0244346093386
---
secs: 1475186974.333
steering_wheel_angle: 0.0244346093386
---
secs: 1475186974.353
steering_wheel_angle: 0.0244346093386
---
secs: 1475186974.373
steering_wheel_angle: 0.0244346093386
---
secs: 1475186974.393
steering_wheel_angle: 0.0244346093386
---
secs: 1475186974.413
steering_wheel_angle: 0.0244346093386
---
secs: 1475186974.433
steering_wheel_angle: 0.0244346093386
---
secs: 1475186974.453
steering_wheel_angle: 0.0244346093386
---
secs: 1475186974.473
steering_wheel_angle: 0.0244346093386
---
secs: 1475186974.493
steering_wheel_angle: 0.0244346093386
---
secs: 1475186974.513
steering_wheel_angle: 0.0244346093386
---
secs: 1475186974.533
steering_wheel_angle: 0.0244346093386
---
secs: 1475186974.553
steering_wheel_angle: 0.0244346093386
---
secs: 1475186974.574
steering_wheel_angle: 0.0244346093386
---
secs: 1475186974.594
steering_wheel_angle: 0.0244346093386
---
secs: 1475186974.614
steering_wheel_angle: 0.0226892810315
---
secs: 1475186974.634
steering_wheel_angle: 0.0244346093386
---
secs: 1475186974.654
steering_wheel_angle: 0.0244346093386
---
secs: 1475186974.674
steering_wheel_angle: 0.0244346093386
---
secs: 1475186974.694
steering_wheel_angle: 0.0244346093386
---
secs: 1475186974.714
steering_wheel_angle: 0.0244346093386
---
secs: 1475186974.734
steering_wheel_angle: 0.0226892810315
---
secs: 1475186974.754
steering_wheel_angle: 0.0226892810315
---
secs: 1475186974.774
steering_wheel_angle: 0.0226892810315
---
secs: 1475186974.794
steering_wheel_angle: 0.0226892810315
---
secs: 1475186974.814
steering_wheel_angle: 0.0226892810315
---
secs: 1475186974.834
steering_wheel_angle: 0.0226892810315
---
secs: 1475186974.854
steering_wheel_angle: 0.0226892810315
---
secs: 1475186974.874
steering_wheel_angle: 0.0226892810315
---
secs: 1475186974.894
steering_wheel_angle: 0.0226892810315
---
secs: 1475186974.914
steering_wheel_angle: 0.0226892810315
---
secs: 1475186974.934
steering_wheel_angle: 0.0226892810315
---
secs: 1475186974.954
steering_wheel_angle: 0.0209439508617
---
secs: 1475186974.974
steering_wheel_angle: 0.0174532923847
---
secs: 1475186974.994
steering_wheel_angle: 0.0174532923847
---
secs: 1475186975.147
steering_wheel_angle: 0.0174532923847
---
secs: 1475186975.347
steering_wheel_angle: 0.0157079640776
---
secs: 1475186975.548
steering_wheel_angle: 0.0174532923847
---
secs: 1475186975.748
steering_wheel_angle: 0.0174532923847
---
secs: 1475186975.949
steering_wheel_angle: 0.0174532923847
---
secs: 1475186975.114
steering_wheel_angle: 0.0174532923847
---
secs: 1475186975.134
steering_wheel_angle: 0.0174532923847
---
secs: 1475186975.154
steering_wheel_angle: 0.0174532923847
---
secs: 1475186975.175
steering_wheel_angle: 0.0157079640776
---
secs: 1475186975.195
steering_wheel_angle: 0.0122173046693
---
secs: 1475186975.215
steering_wheel_angle: 0.0104719754308
---
secs: 1475186975.235
steering_wheel_angle: 0.00872664619237
---
secs: 1475186975.255
steering_wheel_angle: 0.00872664619237
---
secs: 1475186975.275
steering_wheel_angle: 0.0104719754308
---
secs: 1475186975.295
steering_wheel_angle: 0.0104719754308
---
secs: 1475186975.315
steering_wheel_angle: 0.0104719754308
---
secs: 1475186975.335
steering_wheel_angle: 0.0122173046693
---
secs: 1475186975.355
steering_wheel_angle: 0.0122173046693
---
secs: 1475186975.375
steering_wheel_angle: 0.0122173046693
---
secs: 1475186975.395
steering_wheel_angle: 0.0104719754308
---
secs: 1475186975.415
steering_wheel_angle: 0.0104719754308
---
secs: 1475186975.435
steering_wheel_angle: 0.0104719754308
---
secs: 1475186975.455
steering_wheel_angle: 0.0104719754308
---
secs: 1475186975.475
steering_wheel_angle: 0.0104719754308
---
secs: 1475186975.495
steering_wheel_angle: 0.0122173046693
---
secs: 1475186975.515
steering_wheel_angle: 0.0122173046693
---
secs: 1475186975.535
steering_wheel_angle: 0.0122173046693
---
secs: 1475186975.555
steering_wheel_angle: 0.0122173046693
---
secs: 1475186975.575
steering_wheel_angle: 0.0122173046693
---
secs: 1475186975.595
steering_wheel_angle: 0.0122173046693
---
secs: 1475186975.615
steering_wheel_angle: 0.0122173046693
---
secs: 1475186975.636
steering_wheel_angle: 0.0104719754308
---
secs: 1475186975.656
steering_wheel_angle: 0.0104719754308
---
secs: 1475186975.676
steering_wheel_angle: 0.0122173046693
---
secs: 1475186975.696
steering_wheel_angle: 0.0122173046693
---
secs: 1475186975.716
steering_wheel_angle: 0.0122173046693
---
secs: 1475186975.736
steering_wheel_angle: 0.0104719754308
---
secs: 1475186975.756
steering_wheel_angle: 0.0104719754308
---
secs: 1475186975.776
steering_wheel_angle: 0.0104719754308
---
secs: 1475186975.796
steering_wheel_angle: 0.0104719754308
---
secs: 1475186975.816
steering_wheel_angle: 0.0104719754308
---
secs: 1475186975.836
steering_wheel_angle: 0.0104719754308
---
secs: 1475186975.856
steering_wheel_angle: 0.0104719754308
---
secs: 1475186975.876
steering_wheel_angle: 0.0104719754308
---
secs: 1475186975.896
steering_wheel_angle: 0.0104719754308
---
secs: 1475186975.916
steering_wheel_angle: 0.0104719754308
---
secs: 1475186975.936
steering_wheel_angle: 0.0104719754308
---
secs: 1475186975.956
steering_wheel_angle: 0.0104719754308
---
secs: 1475186975.976
steering_wheel_angle: 0.0104719754308
---
secs: 1475186975.996
steering_wheel_angle: 0.0104719754308
---
secs: 1475186976.164
steering_wheel_angle: 0.0104719754308
---
secs: 1475186976.364
steering_wheel_angle: 0.0104719754308
---
secs: 1475186976.564
steering_wheel_angle: 0.0104719754308
---
secs: 1475186976.765
steering_wheel_angle: 0.0104719754308
---
secs: 1475186976.965
steering_wheel_angle: 0.0104719754308
---
secs: 1475186976.116
steering_wheel_angle: 0.0104719754308
---
secs: 1475186976.136
steering_wheel_angle: 0.0104719754308
---
secs: 1475186976.156
steering_wheel_angle: 0.0104719754308
---
secs: 1475186976.176
steering_wheel_angle: 0.0104719754308
---
secs: 1475186976.196
steering_wheel_angle: 0.0104719754308
---
secs: 1475186976.216
steering_wheel_angle: 0.0104719754308
---
secs: 1475186976.237
steering_wheel_angle: 0.0104719754308
---
secs: 1475186976.256
steering_wheel_angle: 0.0104719754308
---
secs: 1475186976.277
steering_wheel_angle: 0.0104719754308
---
secs: 1475186976.297
steering_wheel_angle: 0.0104719754308
---
secs: 1475186976.317
steering_wheel_angle: 0.0104719754308
---
secs: 1475186976.337
steering_wheel_angle: 0.0104719754308
---
secs: 1475186976.357
steering_wheel_angle: 0.0104719754308
---
secs: 1475186976.377
steering_wheel_angle: 0.00872664619237
---
secs: 1475186976.397
steering_wheel_angle: 0.00872664619237
---
secs: 1475186976.417
steering_wheel_angle: 0.00872664619237
---
secs: 1475186976.437
steering_wheel_angle: 0.00872664619237
---
secs: 1475186976.457
steering_wheel_angle: 0.00872664619237
---
secs: 1475186976.477
steering_wheel_angle: 0.00872664619237
---
secs: 1475186976.497
steering_wheel_angle: 0.00872664619237
---
secs: 1475186976.517
steering_wheel_angle: 0.0104719754308
---
secs: 1475186976.537
steering_wheel_angle: 0.0104719754308
---
secs: 1475186976.557
steering_wheel_angle: 0.0104719754308
---
secs: 1475186976.577
steering_wheel_angle: 0.0104719754308
---
secs: 1475186976.597
steering_wheel_angle: 0.0104719754308
---
secs: 1475186976.617
steering_wheel_angle: 0.0104719754308
---
secs: 1475186976.637
steering_wheel_angle: 0.00872664619237
---
secs: 1475186976.657
steering_wheel_angle: 0.00872664619237
---
secs: 1475186976.677
steering_wheel_angle: 0.00872664619237
---
secs: 1475186976.697
steering_wheel_angle: 0.00872664619237
---
secs: 1475186976.717
steering_wheel_angle: 0.00872664619237
---
secs: 1475186976.737
steering_wheel_angle: 0.0104719754308
---
secs: 1475186976.757
steering_wheel_angle: 0.0104719754308
---
secs: 1475186976.777
steering_wheel_angle: 0.0122173046693
---
secs: 1475186976.797
steering_wheel_angle: 0.0122173046693
---
secs: 1475186976.817
steering_wheel_angle: 0.0122173046693
---
secs: 1475186976.837
steering_wheel_angle: 0.0122173046693
---
secs: 1475186976.857
steering_wheel_angle: 0.0122173046693
---
secs: 1475186976.877
steering_wheel_angle: 0.0122173046693
---
secs: 1475186976.897
steering_wheel_angle: 0.0122173046693
---
secs: 1475186976.917
steering_wheel_angle: 0.0139626339078
---
secs: 1475186976.937
steering_wheel_angle: 0.0157079640776
---
secs: 1475186976.957
steering_wheel_angle: 0.0157079640776
---
secs: 1475186976.978
steering_wheel_angle: 0.0174532923847
---
secs: 1475186976.998
steering_wheel_angle: 0.0174532923847
---
secs: 1475186977.180
steering_wheel_angle: 0.0191986225545
---
secs: 1475186977.380
steering_wheel_angle: 0.0209439508617
---
secs: 1475186977.581
steering_wheel_angle: 0.0209439508617
---
secs: 1475186977.781
steering_wheel_angle: 0.0209439508617
---
secs: 1475186977.981
steering_wheel_angle: 0.0226892810315
---
secs: 1475186977.118
steering_wheel_angle: 0.0244346093386
---
secs: 1475186977.138
steering_wheel_angle: 0.0279252678156
---
secs: 1475186977.158
steering_wheel_angle: 0.0296705979854
---
secs: 1475186977.178
steering_wheel_angle: 0.0296705979854
---
secs: 1475186977.198
steering_wheel_angle: 0.0314159281552
---
secs: 1475186977.218
steering_wheel_angle: 0.0331612564623
---
secs: 1475186977.238
steering_wheel_angle: 0.0331612564623
---
secs: 1475186977.258
steering_wheel_angle: 0.0349065847695
---
secs: 1475186977.278
steering_wheel_angle: 0.0349065847695
---
secs: 1475186977.298
steering_wheel_angle: 0.0366519130766
---
secs: 1475186977.318
steering_wheel_angle: 0.0383972451091
---
secs: 1475186977.338
steering_wheel_angle: 0.0401425734162
---
secs: 1475186977.358
steering_wheel_angle: 0.0418879017234
---
secs: 1475186977.378
steering_wheel_angle: 0.045378562063
---
secs: 1475186977.398
steering_wheel_angle: 0.0471238903701
---
secs: 1475186977.418
steering_wheel_angle: 0.0488692186773
---
secs: 1475186977.438
steering_wheel_angle: 0.0506145469844
---
secs: 1475186977.458
steering_wheel_angle: 0.0506145469844
---
secs: 1475186977.478
steering_wheel_angle: 0.0506145469844
---
secs: 1475186977.498
steering_wheel_angle: 0.0506145469844
---
secs: 1475186977.518
steering_wheel_angle: 0.0506145469844
---
secs: 1475186977.538
steering_wheel_angle: 0.0506145469844
---
secs: 1475186977.558
steering_wheel_angle: 0.0506145469844
---
secs: 1475186977.578
steering_wheel_angle: 0.0506145469844
---
secs: 1475186977.599
steering_wheel_angle: 0.0506145469844
---
secs: 1475186977.619
steering_wheel_angle: 0.0506145469844
---
secs: 1475186977.639
steering_wheel_angle: 0.0506145469844
---
secs: 1475186977.659
steering_wheel_angle: 0.0506145469844
---
secs: 1475186977.679
steering_wheel_angle: 0.0506145469844
---
secs: 1475186977.699
steering_wheel_angle: 0.0506145469844
---
secs: 1475186977.719
steering_wheel_angle: 0.0506145469844
---
secs: 1475186977.739
steering_wheel_angle: 0.0506145469844
---
secs: 1475186977.759
steering_wheel_angle: 0.0523598790169
---
secs: 1475186977.779
steering_wheel_angle: 0.0523598790169
---
secs: 1475186977.799
steering_wheel_angle: 0.0506145469844
---
secs: 1475186977.819
steering_wheel_angle: 0.0523598790169
---
secs: 1475186977.839
steering_wheel_angle: 0.0523598790169
---
secs: 1475186977.859
steering_wheel_angle: 0.0523598790169
---
secs: 1475186977.879
steering_wheel_angle: 0.054105207324
---
secs: 1475186977.899
steering_wheel_angle: 0.054105207324
---
secs: 1475186977.919
steering_wheel_angle: 0.054105207324
---
secs: 1475186977.939
steering_wheel_angle: 0.054105207324
---
secs: 1475186977.959
steering_wheel_angle: 0.054105207324
---
secs: 1475186977.979
steering_wheel_angle: 0.0523598790169
---
secs: 1475186977.999
steering_wheel_angle: 0.0523598790169
---
secs: 1475186978.197
steering_wheel_angle: 0.0523598790169
---
secs: 1475186978.397
steering_wheel_angle: 0.0523598790169
---
secs: 1475186978.597
steering_wheel_angle: 0.054105207324
---
secs: 1475186978.798
steering_wheel_angle: 0.054105207324
---
secs: 1475186978.998
steering_wheel_angle: 0.054105207324
---
secs: 1475186978.119
steering_wheel_angle: 0.054105207324
---
secs: 1475186978.140
steering_wheel_angle: 0.0523598790169
---
secs: 1475186978.159
steering_wheel_angle: 0.0523598790169
---
secs: 1475186978.179
steering_wheel_angle: 0.0523598790169
---
secs: 1475186978.200
steering_wheel_angle: 0.0523598790169
---
secs: 1475186978.220
steering_wheel_angle: 0.0523598790169
---
secs: 1475186978.240
steering_wheel_angle: 0.0523598790169
---
secs: 1475186978.260
steering_wheel_angle: 0.0523598790169
---
secs: 1475186978.280
steering_wheel_angle: 0.0523598790169
---
secs: 1475186978.300
steering_wheel_angle: 0.0523598790169
---
secs: 1475186978.320
steering_wheel_angle: 0.0523598790169
---
secs: 1475186978.340
steering_wheel_angle: 0.0523598790169
---
secs: 1475186978.360
steering_wheel_angle: 0.0523598790169
---
secs: 1475186978.380
steering_wheel_angle: 0.0523598790169
---
secs: 1475186978.400
steering_wheel_angle: 0.0523598790169
---
secs: 1475186978.420
steering_wheel_angle: 0.0523598790169
---
secs: 1475186978.440
steering_wheel_angle: 0.054105207324
---
secs: 1475186978.460
steering_wheel_angle: 0.054105207324
---
secs: 1475186978.480
steering_wheel_angle: 0.0523598790169
---
secs: 1475186978.500
steering_wheel_angle: 0.0523598790169
---
secs: 1475186978.520
steering_wheel_angle: 0.0506145469844
---
secs: 1475186978.540
steering_wheel_angle: 0.0488692186773
---
secs: 1475186978.560
steering_wheel_angle: 0.0471238903701
---
secs: 1475186978.580
steering_wheel_angle: 0.0471238903701
---
secs: 1475186978.600
steering_wheel_angle: 0.0471238903701
---
secs: 1475186978.620
steering_wheel_angle: 0.0471238903701
---
secs: 1475186978.640
steering_wheel_angle: 0.0488692186773
---
secs: 1475186978.660
steering_wheel_angle: 0.0488692186773
---
secs: 1475186978.680
steering_wheel_angle: 0.0488692186773
---
secs: 1475186978.700
steering_wheel_angle: 0.0488692186773
---
secs: 1475186978.720
steering_wheel_angle: 0.0488692186773
---
secs: 1475186978.740
steering_wheel_angle: 0.0471238903701
---
secs: 1475186978.760
steering_wheel_angle: 0.0471238903701
---
secs: 1475186978.781
steering_wheel_angle: 0.0471238903701
---
secs: 1475186978.801
steering_wheel_angle: 0.0471238903701
---
secs: 1475186978.821
steering_wheel_angle: 0.0471238903701
---
secs: 1475186978.841
steering_wheel_angle: 0.0471238903701
---
secs: 1475186978.861
steering_wheel_angle: 0.0471238903701
---
secs: 1475186978.881
steering_wheel_angle: 0.0471238903701
---
secs: 1475186978.901
steering_wheel_angle: 0.0471238903701
---
secs: 1475186978.921
steering_wheel_angle: 0.0488692186773
---
secs: 1475186978.941
steering_wheel_angle: 0.0506145469844
---
secs: 1475186978.961
steering_wheel_angle: 0.0506145469844
---
secs: 1475186978.981
steering_wheel_angle: 0.0506145469844
---
secs: 1475186979.131
steering_wheel_angle: 0.0506145469844
---
secs: 1475186979.214
steering_wheel_angle: 0.0506145469844
---
secs: 1475186979.414
steering_wheel_angle: 0.0506145469844
---
secs: 1475186979.614
steering_wheel_angle: 0.0506145469844
---
secs: 1475186979.815
steering_wheel_angle: 0.0506145469844
---
secs: 1475186979.101
steering_wheel_angle: 0.0523598790169
---
secs: 1475186979.121
steering_wheel_angle: 0.0523598790169
---
secs: 1475186979.141
steering_wheel_angle: 0.0523598790169
---
secs: 1475186979.161
steering_wheel_angle: 0.0523598790169
---
secs: 1475186979.181
steering_wheel_angle: 0.0523598790169
---
secs: 1475186979.201
steering_wheel_angle: 0.0523598790169
---
secs: 1475186979.221
steering_wheel_angle: 0.0506145469844
---
secs: 1475186979.241
steering_wheel_angle: 0.0506145469844
---
secs: 1475186979.261
steering_wheel_angle: 0.0506145469844
---
secs: 1475186979.281
steering_wheel_angle: 0.0506145469844
---
secs: 1475186979.301
steering_wheel_angle: 0.0523598790169
---
secs: 1475186979.321
steering_wheel_angle: 0.0523598790169
---
secs: 1475186979.341
steering_wheel_angle: 0.0523598790169
---
secs: 1475186979.361
steering_wheel_angle: 0.0523598790169
---
secs: 1475186979.381
steering_wheel_angle: 0.0523598790169
---
secs: 1475186979.401
steering_wheel_angle: 0.0506145469844
---
secs: 1475186979.422
steering_wheel_angle: 0.0506145469844
---
secs: 1475186979.442
steering_wheel_angle: 0.0506145469844
---
secs: 1475186979.462
steering_wheel_angle: 0.0506145469844
---
secs: 1475186979.482
steering_wheel_angle: 0.0488692186773
---
secs: 1475186979.502
steering_wheel_angle: 0.0488692186773
---
secs: 1475186979.522
steering_wheel_angle: 0.0488692186773
---
secs: 1475186979.542
steering_wheel_angle: 0.0471238903701
---
secs: 1475186979.562
steering_wheel_angle: 0.0471238903701
---
secs: 1475186979.582
steering_wheel_angle: 0.0471238903701
---
secs: 1475186979.602
steering_wheel_angle: 0.045378562063
---
secs: 1475186979.622
steering_wheel_angle: 0.045378562063
---
secs: 1475186979.642
steering_wheel_angle: 0.045378562063
---
secs: 1475186979.662
steering_wheel_angle: 0.045378562063
---
secs: 1475186979.682
steering_wheel_angle: 0.0436332300305
---
secs: 1475186979.702
steering_wheel_angle: 0.0418879017234
---
secs: 1475186979.722
steering_wheel_angle: 0.0401425734162
---
secs: 1475186979.742
steering_wheel_angle: 0.0366519130766
---
secs: 1475186979.762
steering_wheel_angle: 0.0349065847695
---
secs: 1475186979.782
steering_wheel_angle: 0.0314159281552
---
secs: 1475186979.802
steering_wheel_angle: 0.0296705979854
---
secs: 1475186979.822
steering_wheel_angle: 0.0296705979854
---
secs: 1475186979.842
steering_wheel_angle: 0.0296705979854
---
secs: 1475186979.862
steering_wheel_angle: 0.0296705979854
---
secs: 1475186979.882
steering_wheel_angle: 0.0279252678156
---
secs: 1475186979.902
steering_wheel_angle: 0.0279252678156
---
secs: 1475186979.922
steering_wheel_angle: 0.0279252678156
---
secs: 1475186979.942
steering_wheel_angle: 0.0261799395084
---
secs: 1475186979.962
steering_wheel_angle: 0.0226892810315
---
secs: 1475186979.982
steering_wheel_angle: 0.0174532923847
---
secs: 1475186980.300
steering_wheel_angle: 0.0122173046693
---
secs: 1475186980.230
steering_wheel_angle: 0.0069813169539
---
secs: 1475186980.430
steering_wheel_angle: 0.00174532923847
---
secs: 1475186980.630
steering_wheel_angle: -0.00174532923847
---
secs: 1475186980.831
steering_wheel_angle: -0.00349065847695
---
secs: 1475186980.103
steering_wheel_angle: -0.00349065847695
---
secs: 1475186980.123
steering_wheel_angle: -0.00174532923847
---
secs: 1475186980.143
steering_wheel_angle: 0.0
---
secs: 1475186980.163
steering_wheel_angle: 0.0
---
secs: 1475186980.183
steering_wheel_angle: 0.0
---
secs: 1475186980.203
steering_wheel_angle: 0.0
---
secs: 1475186980.223
steering_wheel_angle: 0.0
---
secs: 1475186980.243
steering_wheel_angle: 0.0
---
secs: 1475186980.263
steering_wheel_angle: 0.0
---
secs: 1475186980.283
steering_wheel_angle: 0.0
---
secs: 1475186980.303
steering_wheel_angle: 0.0
---
secs: 1475186980.323
steering_wheel_angle: 0.0
---
secs: 1475186980.343
steering_wheel_angle: 0.0
---
secs: 1475186980.363
steering_wheel_angle: 0.0
---
secs: 1475186980.383
steering_wheel_angle: 0.00174532923847
---
secs: 1475186980.403
steering_wheel_angle: 0.00174532923847
---
secs: 1475186980.423
steering_wheel_angle: 0.00174532923847
---
secs: 1475186980.443
steering_wheel_angle: 0.00174532923847
---
secs: 1475186980.463
steering_wheel_angle: 0.00174532923847
---
secs: 1475186980.483
steering_wheel_angle: 0.00174532923847
---
secs: 1475186980.503
steering_wheel_angle: 0.00174532923847
---
secs: 1475186980.523
steering_wheel_angle: 0.00174532923847
---
secs: 1475186980.543
steering_wheel_angle: 0.00349065847695
---
secs: 1475186980.563
steering_wheel_angle: 0.00349065847695
---
secs: 1475186980.584
steering_wheel_angle: 0.00349065847695
---
secs: 1475186980.603
steering_wheel_angle: 0.00349065847695
---
secs: 1475186980.624
steering_wheel_angle: 0.00349065847695
---
secs: 1475186980.644
steering_wheel_angle: 0.00349065847695
---
secs: 1475186980.664
steering_wheel_angle: 0.00349065847695
---
secs: 1475186980.684
steering_wheel_angle: 0.00523598771542
---
secs: 1475186980.704
steering_wheel_angle: 0.00523598771542
---
secs: 1475186980.724
steering_wheel_angle: 0.00523598771542
---
secs: 1475186980.744
steering_wheel_angle: 0.00523598771542
---
secs: 1475186980.764
steering_wheel_angle: 0.00523598771542
---
secs: 1475186980.784
steering_wheel_angle: 0.00523598771542
---
secs: 1475186980.804
steering_wheel_angle: 0.00523598771542
---
secs: 1475186980.824
steering_wheel_angle: 0.00872664619237
---
secs: 1475186980.844
steering_wheel_angle: 0.0104719754308
---
secs: 1475186980.864
steering_wheel_angle: 0.0157079640776
---
secs: 1475186980.884
steering_wheel_angle: 0.0174532923847
---
secs: 1475186980.904
steering_wheel_angle: 0.0209439508617
---
secs: 1475186980.924
steering_wheel_angle: 0.0226892810315
---
secs: 1475186980.944
steering_wheel_angle: 0.0226892810315
---
secs: 1475186980.964
steering_wheel_angle: 0.0226892810315
---
secs: 1475186980.984
steering_wheel_angle: 0.0226892810315
---
secs: 1475186981.483
steering_wheel_angle: 0.0209439508617
---
secs: 1475186981.246
steering_wheel_angle: 0.0209439508617
---
secs: 1475186981.447
steering_wheel_angle: 0.0209439508617
---
secs: 1475186981.647
steering_wheel_angle: 0.0209439508617
---
secs: 1475186981.847
steering_wheel_angle: 0.0209439508617
---
secs: 1475186981.104
steering_wheel_angle: 0.0209439508617
---
secs: 1475186981.124
steering_wheel_angle: 0.0209439508617
---
secs: 1475186981.144
steering_wheel_angle: 0.0191986225545
---
secs: 1475186981.164
steering_wheel_angle: 0.0174532923847
---
secs: 1475186981.184
steering_wheel_angle: 0.0174532923847
---
secs: 1475186981.205
steering_wheel_angle: 0.0157079640776
---
secs: 1475186981.224
steering_wheel_angle: 0.0157079640776
---
secs: 1475186981.245
steering_wheel_angle: 0.0139626339078
---
secs: 1475186981.265
steering_wheel_angle: 0.0139626339078
---
secs: 1475186981.285
steering_wheel_angle: 0.0122173046693
---
secs: 1475186981.305
steering_wheel_angle: 0.0122173046693
---
secs: 1475186981.325
steering_wheel_angle: 0.0139626339078
---
secs: 1475186981.345
steering_wheel_angle: 0.0122173046693
---
secs: 1475186981.365
steering_wheel_angle: 0.0122173046693
---
secs: 1475186981.385
steering_wheel_angle: 0.0122173046693
---
secs: 1475186981.405
steering_wheel_angle: 0.0122173046693
---
secs: 1475186981.425
steering_wheel_angle: 0.0104719754308
---
secs: 1475186981.445
steering_wheel_angle: 0.0122173046693
---
secs: 1475186981.465
steering_wheel_angle: 0.0122173046693
---
secs: 1475186981.485
steering_wheel_angle: 0.0139626339078
---
secs: 1475186981.505
steering_wheel_angle: 0.0139626339078
---
secs: 1475186981.525
steering_wheel_angle: 0.0157079640776
---
secs: 1475186981.545
steering_wheel_angle: 0.0174532923847
---
secs: 1475186981.565
steering_wheel_angle: 0.0174532923847
---
secs: 1475186981.585
steering_wheel_angle: 0.0174532923847
---
secs: 1475186981.605
steering_wheel_angle: 0.0174532923847
---
secs: 1475186981.625
steering_wheel_angle: 0.0174532923847
---
secs: 1475186981.645
steering_wheel_angle: 0.0174532923847
---
secs: 1475186981.666
steering_wheel_angle: 0.0174532923847
---
secs: 1475186981.685
steering_wheel_angle: 0.0174532923847
---
secs: 1475186981.705
steering_wheel_angle: 0.0174532923847
---
secs: 1475186981.725
steering_wheel_angle: 0.0174532923847
---
secs: 1475186981.745
steering_wheel_angle: 0.0174532923847
---
secs: 1475186981.765
steering_wheel_angle: 0.0174532923847
---
secs: 1475186981.785
steering_wheel_angle: 0.0174532923847
---
secs: 1475186981.805
steering_wheel_angle: 0.0174532923847
---
secs: 1475186981.826
steering_wheel_angle: 0.0174532923847
---
secs: 1475186981.846
steering_wheel_angle: 0.0174532923847
---
secs: 1475186981.866
steering_wheel_angle: 0.0174532923847
---
secs: 1475186981.886
steering_wheel_angle: 0.0174532923847
---
secs: 1475186981.906
steering_wheel_angle: 0.0174532923847
---
secs: 1475186981.926
steering_wheel_angle: 0.0174532923847
---
secs: 1475186981.946
steering_wheel_angle: 0.0174532923847
---
secs: 1475186981.966
steering_wheel_angle: 0.0191986225545
---
secs: 1475186981.986
steering_wheel_angle: 0.0209439508617
---
secs: 1475186982.630
steering_wheel_angle: 0.0226892810315
---
secs: 1475186982.263
steering_wheel_angle: 0.0226892810315
---
secs: 1475186982.464
steering_wheel_angle: 0.0226892810315
---
secs: 1475186982.664
steering_wheel_angle: 0.0226892810315
---
secs: 1475186982.866
steering_wheel_angle: 0.0226892810315
---
secs: 1475186982.106
steering_wheel_angle: 0.0209439508617
---
secs: 1475186982.126
steering_wheel_angle: 0.0209439508617
---
secs: 1475186982.146
steering_wheel_angle: 0.0209439508617
---
secs: 1475186982.166
steering_wheel_angle: 0.0226892810315
---
secs: 1475186982.186
steering_wheel_angle: 0.0244346093386
---
secs: 1475186982.206
steering_wheel_angle: 0.0261799395084
---
secs: 1475186982.226
steering_wheel_angle: 0.0279252678156
---
secs: 1475186982.246
steering_wheel_angle: 0.0296705979854
---
secs: 1475186982.266
steering_wheel_angle: 0.0296705979854
---
secs: 1475186982.286
steering_wheel_angle: 0.0296705979854
---
secs: 1475186982.306
steering_wheel_angle: 0.0314159281552
---
secs: 1475186982.327
steering_wheel_angle: 0.0349065847695
---
secs: 1475186982.346
steering_wheel_angle: 0.0349065847695
---
secs: 1475186982.367
steering_wheel_angle: 0.0349065847695
---
secs: 1475186982.386
steering_wheel_angle: 0.0349065847695
---
secs: 1475186982.406
steering_wheel_angle: 0.0349065847695
---
secs: 1475186982.427
steering_wheel_angle: 0.0366519130766
---
secs: 1475186982.447
steering_wheel_angle: 0.0366519130766
---
secs: 1475186982.467
steering_wheel_angle: 0.0401425734162
---
secs: 1475186982.487
steering_wheel_angle: 0.0418879017234
---
secs: 1475186982.507
steering_wheel_angle: 0.0471238903701
---
secs: 1475186982.527
steering_wheel_angle: 0.0506145469844
---
secs: 1475186982.547
steering_wheel_angle: 0.0558505356312
---
secs: 1475186982.567
steering_wheel_angle: 0.0593411959708
---
secs: 1475186982.587
steering_wheel_angle: 0.0645771846175
---
secs: 1475186982.607
steering_wheel_angle: 0.0680678412318
---
secs: 1475186982.627
steering_wheel_angle: 0.0715584978461
---
secs: 1475186982.647
steering_wheel_angle: 0.0733038261533
---
secs: 1475186982.667
steering_wheel_angle: 0.0733038261533
---
secs: 1475186982.687
steering_wheel_angle: 0.0733038261533
---
secs: 1475186982.707
steering_wheel_angle: 0.0733038261533
---
secs: 1475186982.727
steering_wheel_angle: 0.0733038261533
---
secs: 1475186982.747
steering_wheel_angle: 0.0715584978461
---
secs: 1475186982.767
steering_wheel_angle: 0.0715584978461
---
secs: 1475186982.787
steering_wheel_angle: 0.0715584978461
---
secs: 1475186982.807
steering_wheel_angle: 0.0715584978461
---
secs: 1475186982.827
steering_wheel_angle: 0.0715584978461
---
secs: 1475186982.847
steering_wheel_angle: 0.0715584978461
---
secs: 1475186982.867
steering_wheel_angle: 0.0715584978461
---
secs: 1475186982.887
steering_wheel_angle: 0.0715584978461
---
secs: 1475186982.908
steering_wheel_angle: 0.0715584978461
---
secs: 1475186982.927
steering_wheel_angle: 0.069813169539
---
secs: 1475186982.948
steering_wheel_angle: 0.069813169539
---
secs: 1475186982.968
steering_wheel_angle: 0.069813169539
---
secs: 1475186982.987
steering_wheel_angle: 0.069813169539
---
secs: 1475186983.797
steering_wheel_angle: 0.069813169539
---
secs: 1475186983.280
steering_wheel_angle: 0.069813169539
---
secs: 1475186983.480
steering_wheel_angle: 0.069813169539
---
secs: 1475186983.681
steering_wheel_angle: 0.0663225129247
---
secs: 1475186983.881
steering_wheel_angle: 0.0628318563104
---
secs: 1475186983.108
steering_wheel_angle: 0.0593411959708
---
secs: 1475186983.128
steering_wheel_angle: 0.054105207324
---
secs: 1475186983.148
steering_wheel_angle: 0.0488692186773
---
secs: 1475186983.168
steering_wheel_angle: 0.0436332300305
---
secs: 1475186983.188
steering_wheel_angle: 0.0401425734162
---
secs: 1475186983.208
steering_wheel_angle: 0.0349065847695
---
secs: 1475186983.228
steering_wheel_angle: 0.0314159281552
---
secs: 1475186983.248
steering_wheel_angle: 0.0279252678156
---
secs: 1475186983.268
steering_wheel_angle: 0.0261799395084
---
secs: 1475186983.288
steering_wheel_angle: 0.0244346093386
---
secs: 1475186983.308
steering_wheel_angle: 0.0244346093386
---
secs: 1475186983.328
steering_wheel_angle: 0.0244346093386
---
secs: 1475186983.348
steering_wheel_angle: 0.0244346093386
---
secs: 1475186983.368
steering_wheel_angle: 0.0261799395084
---
secs: 1475186983.388
steering_wheel_angle: 0.0261799395084
---
secs: 1475186983.408
steering_wheel_angle: 0.0279252678156
---
secs: 1475186983.428
steering_wheel_angle: 0.0279252678156
---
secs: 1475186983.448
steering_wheel_angle: 0.0279252678156
---
secs: 1475186983.468
steering_wheel_angle: 0.0279252678156
---
secs: 1475186983.488
steering_wheel_angle: 0.0279252678156
---
secs: 1475186983.508
steering_wheel_angle: 0.0279252678156
---
secs: 1475186983.528
steering_wheel_angle: 0.0279252678156
---
secs: 1475186983.548
steering_wheel_angle: 0.0244346093386
---
secs: 1475186983.568
steering_wheel_angle: 0.0226892810315
---
secs: 1475186983.588
steering_wheel_angle: 0.0226892810315
---
secs: 1475186983.608
steering_wheel_angle: 0.0226892810315
---
secs: 1475186983.629
steering_wheel_angle: 0.0209439508617
---
secs: 1475186983.649
steering_wheel_angle: 0.0191986225545
---
secs: 1475186983.669
steering_wheel_angle: 0.0174532923847
---
secs: 1475186983.689
steering_wheel_angle: 0.0157079640776
---
secs: 1475186983.709
steering_wheel_angle: 0.0122173046693
---
secs: 1475186983.729
steering_wheel_angle: 0.0104719754308
---
secs: 1475186983.749
steering_wheel_angle: 0.0069813169539
---
secs: 1475186983.769
steering_wheel_angle: 0.00523598771542
---
secs: 1475186983.789
steering_wheel_angle: 0.00174532923847
---
secs: 1475186983.809
steering_wheel_angle: 0.0
---
secs: 1475186983.829
steering_wheel_angle: -0.00349065847695
---
secs: 1475186983.849
steering_wheel_angle: -0.00523598771542
---
secs: 1475186983.869
steering_wheel_angle: -0.0069813169539
---
secs: 1475186983.889
steering_wheel_angle: -0.0069813169539
---
secs: 1475186983.909
steering_wheel_angle: -0.0069813169539
---
secs: 1475186983.929
steering_wheel_angle: -0.0069813169539
---
secs: 1475186983.949
steering_wheel_angle: -0.0069813169539
---
secs: 1475186983.969
steering_wheel_angle: -0.0069813169539
---
secs: 1475186983.989
steering_wheel_angle: -0.0069813169539
---
secs: 1475186984.963
steering_wheel_angle: -0.0069813169539
---
secs: 1475186984.296
steering_wheel_angle: -0.00872664619237
---
secs: 1475186984.496
steering_wheel_angle: -0.0104719754308
---
secs: 1475186984.696
steering_wheel_angle: -0.0104719754308
---
secs: 1475186984.897
steering_wheel_angle: -0.0104719754308
---
secs: 1475186984.109
steering_wheel_angle: -0.0104719754308
---
secs: 1475186984.129
steering_wheel_angle: -0.0122173046693
---
secs: 1475186984.149
steering_wheel_angle: -0.0122173046693
---
secs: 1475186984.169
steering_wheel_angle: -0.0122173046693
---
secs: 1475186984.189
steering_wheel_angle: -0.0122173046693
---
secs: 1475186984.209
steering_wheel_angle: -0.0122173046693
---
secs: 1475186984.229
steering_wheel_angle: -0.0122173046693
---
secs: 1475186984.250
steering_wheel_angle: -0.0122173046693
---
secs: 1475186984.270
steering_wheel_angle: -0.0122173046693
---
secs: 1475186984.290
steering_wheel_angle: -0.0122173046693
---
secs: 1475186984.310
steering_wheel_angle: -0.0122173046693
---
secs: 1475186984.330
steering_wheel_angle: -0.0122173046693
---
secs: 1475186984.350
steering_wheel_angle: -0.0122173046693
---
secs: 1475186984.370
steering_wheel_angle: -0.0122173046693
---
secs: 1475186984.390
steering_wheel_angle: -0.0122173046693
---
secs: 1475186984.410
steering_wheel_angle: -0.0122173046693
---
secs: 1475186984.430
steering_wheel_angle: -0.0122173046693
---
secs: 1475186984.450
steering_wheel_angle: -0.0122173046693
---
secs: 1475186984.470
steering_wheel_angle: -0.0122173046693
---
secs: 1475186984.490
steering_wheel_angle: -0.0122173046693
---
secs: 1475186984.510
steering_wheel_angle: -0.0122173046693
---
secs: 1475186984.530
steering_wheel_angle: -0.0122173046693
---
secs: 1475186984.550
steering_wheel_angle: -0.0122173046693
---
secs: 1475186984.570
